~Version Information
VERS  .          2.0                              :CWLS Log Ascii Standard - Version 2.0
WRAP  .          NO                               :One line per depth step
~Well Information Block
#MNEM.UNIT       Data Type                        Information
#---------       ---------                        -------------------------------
STRT  .F         6780.00000                       :START DEPTH
STOP  .F         7804.00000                       :STOP DEPTH
STEP  .F          0.50000                         :INCREMENT 
NULL  .          -999.25                          :NULL DATA VALUE
COMP  .          NORTHEAST NATURAL ENERGY         :COMPANY
WELL  .          MIP_3H                           :WELL
FLD   .          MONONGALIA                       :FIELD
LOC   .          LONG  .DEG       -79.976624      :LOCATION
LOC1  .          LATI  .DEG       39.602203       :LOCATION
STAT  .          WEST VIRGINIA                    :STATE
CNTY  .          MONONGALIA                       :COUNTY
CTRY  .          USA                              :COUNTRY
DATE  .          05-SEP-2015                      :DATE
UWI   .          47-061-01707-00-00               :UNIQUE WELL UWI
API   .          47-061-01707-00-00               :API NUMBER
SRVC  .          SLB                              :SERVICE COMPANY
~Parameter Information Block
#MNEM.UNIT       Value                            Description
#---------       ---------                        -------------
LONG  .DEG       -79.976624                       :Well Surface Location
LATI  .DEG       39.602203                        :Well Surface Location
XWELL .DEG       -79.976624                       :X-coordinate of Well Head
YWELL .DEG       39.602203                        :Y-coordinate of Well Head
PDAT  .          GL                               :Permanent Datum               
EPD   .ft        1058.00                          :Elevation of Permanent Datum (PDAT) above Mean Sea Level
LMF   .          KB                               :Logging Measured From (Name of Working Datum)
APD   .ft        22.50                            :Elevation of Working Datum (LMF) Above Permanent Datum
EKB   .ft        1080.50                          :Elevation of Kelly Bushing Above Mean Sea Level
EGL   .ft        1058.00                          :Elevation of Ground Level Above Mean Sea Level
EDF   .ft        1080.50                          :Elevation of Derrick Floor Above Mean Sea Level
~Curve Information Block
#MNEM.UNIT       API Code            Curve    Description
#--------        --------------      -----    -------------------
DEPT  .F                             :0       Index
BS    .IN                            :1       Bit Size                      
DTCO  .US/F                          :2       Delta-T Compressional         
DTSM_FAST.US/F                       :3       Shear Slowness of Fast Shear Waves
DTSM_SLOW.US/F                       :4       Shear Slowness of Slow Shear Waves
DTST  .US/F                          :5       Delta-T Stoneley - Monopole Stoneley
FLAG  .                              :6       General Indicator Flag        
FSH_AZIM_ERR.DEG                     :7       Fast shear azimuth error      
FSH_AZIM_FILTERED.DEG                :8       Filtered estimate of fast shear azimuth from pad1 azimuth
FSH_P1NO.DEG                         :9       Estimated fast shear azimuth from pad1 azimuth in plane orthogonal to tool axis
GR_EDTC.GAPI                         :10      Gamma Ray                     
HAZIM .DEG                           :11      Hole Azimuth                  
HD1_PPC1.IN                          :12      PPC1 Hole Diameter 1          
HD2_PPC1.IN                          :13      PPC1 Hole Diameter 2          
MAXXENE_OVERALL.                     :14      Overall estimate of maximum cross energy
MINXENE_OVERALL.                     :15      Overall estimate of minimum cross energy
P1NO_MAST.DEG                        :16      Pad 1 Azimuth in Plane Orthogonal to Tool Axis (0 = True North), memorized to MAST
PR    .                              :17      Poisson's Ratio               
RHOB  .G/C3                          :18      Bulk Density                  
SDEVM .DEG                           :19      Sonde Deviation               
SLOANI.                              :20      Slowness based anisotropy     
SPHI  .V/V                           :21      Sonic Porosity                
SVCO  .FT/S                          :22      Sonic Compressional Velocity  
SVSH  .FT/S                          :23      Sonic Shear Velocity          
TENS  .LBF                           :24      Cable Tension                 
TIMANI.                              :25      Time based anisotropy         
TWB   .US                            :26      Time window begin             
TWE   .US                            :27      Time window end               
VPVS  .                              :28      Compressional to Shear Velocity Ratio
~Ascii Data Section
# ...
   6910.00000       8.75000      71.52094     126.92839     126.92839     205.29097       0.00000       9.56490    -999.25000      88.08179     129.83853     285.33484       9.20672       9.14098       1.83318       0.90175     149.14688       0.26740       2.74765       1.03854       0.00000       0.16917   13981.91895    7878.45801    3188.90479       0.68832    2465.14404    4465.14404       1.77470 
   6910.50000       8.75000      71.61724     126.83202     126.83202     205.40688       0.00000       9.95379    -999.25000      86.95882     124.31540     285.12482       9.26655       9.17997       1.78879       0.89788     147.03253       0.26595       2.73913       1.03702       0.00000       0.16985   13963.11816    7884.44434    3210.50000       0.68398    2469.18604    4469.18604       1.77097 
   6911.00000       8.75000      71.57400     126.71748     126.71748     205.52864       0.00000      10.29053    -999.25000      85.54573     116.82276     284.89954       9.27835       9.19356       1.77495       0.90069     145.41083       0.26575       2.73712       1.03423       0.00000       0.16955   13971.55469    7891.57080    3138.66675       0.67331    2472.76025    4472.76025       1.77044 
   6911.50000       8.75000      71.67660     127.02486     127.02486     205.61708       0.00000      10.82573    -999.25000      83.65755     109.40974     284.59537       9.25448       9.19356       1.77338       0.91649     145.27634       0.26643       2.73808       1.03343       0.00000       0.17027   13951.55469    7872.47461    2998.14307       0.65004    2475.21484    4475.21484       1.77219 
   6912.00000       8.75000      72.23745     128.63365     128.63365     205.67058       0.00000      11.35644    -999.25000      82.01988     109.54553     284.36725       9.26627       9.18087       1.78412       0.94171     145.24992       0.26968       2.72683       1.02365       0.00000       0.17424   13843.23535    7774.01562    3028.33350       0.63163    2476.56421    4476.56445       1.78071 
   6912.50000       8.75000      73.60925     130.78886     130.78886     206.05774       0.00000      11.89779    -999.25000      80.66377     108.60429     283.99475       9.24268       9.16817       1.80945       0.97101     144.92471       0.26820       2.70883       1.01410       0.00000       0.18394   13585.25000    7645.91064    3154.47632       0.61998    2476.98242    4476.98242       1.77680 
   6913.00000       8.75000      75.41620     132.57503     132.57503     206.70790       0.00000      12.49275    -999.25000      78.91994     112.28020     283.57117       9.19283       9.13807       1.85713       1.00933     142.77655       0.26079       2.69041       1.00400       0.00000       0.19672   13259.75098    7542.89893    3199.52393       0.60515    2477.09961    4477.09961       1.75791 
   6913.50000       8.75000      77.11621     133.76128     133.76128     207.17903       0.00000      13.07017    -999.25000      77.33737     121.70925     283.26279       9.20493       9.13807       1.89175       1.05037     142.17593       0.25107       2.67188       0.99520       0.00000       0.20874   12967.44238    7476.00537    3103.50000       0.58587    2477.18701    4477.18750       1.73454 
   6914.00000       8.75000      78.16460     134.68605     134.81500     207.29028       0.00000      13.52279    -999.25000      76.02827     137.66833     282.76074       9.19463       9.12827       1.89869       1.07777     142.13388       0.24608       2.64852       0.98261       0.09570       0.21616   12793.51465    7424.67383    3018.23804       0.55917    2476.84424    4476.84424       1.72311 
   6914.50000       8.75000      78.17950     135.19876     135.23470     207.27141       0.00000      13.86048    -999.25000      74.20451     144.75714     282.32596       9.18101       9.12535       1.89299       1.10313     142.05161       0.24882       2.63032       0.97312       0.02658       0.21626   12791.07715    7396.51758    2895.71436       0.50895    2476.28394    4476.28418       1.72934 
   6915.00000       8.75000      77.17443     134.50388     134.50388     207.24603       0.00000      14.21747    -999.25000      72.81229     140.50554     281.86322       9.17073       9.15546       1.88401       1.12788     141.97641       0.25461       2.63539       0.96710       0.00000       0.20915   12957.65918    7434.72998    2827.90479       0.47739    2476.12231    4476.12207       1.74286 
   6915.50000       8.75000      75.59487     132.93657     133.11256     207.00771       0.00000      14.59941    -999.25000      72.29277     136.84753     281.45978       9.25448       9.20803       1.86649       1.14056     141.24626       0.26105       2.64974       0.96083       0.13230       0.19798   13228.41016    7522.38477    2857.66675       0.47826    2476.04541    4476.04541       1.75854 
   6916.00000       8.75000      74.07624     130.93744     131.76891     206.50114       0.00000      14.94539    -999.25000      71.14089     130.16997     281.26901       9.26627       9.20714       1.84488       1.14668     139.29819       0.26464       2.67393       0.96068       0.63300       0.18724   13499.60547    7637.23486    3397.42871       0.45541    2475.81763    4475.81738       1.76760 
   6916.50000       8.75000      72.93899     129.40620     130.83235     206.07161       0.00000      15.74715    -999.25000      69.38141     127.05762     281.21521       9.27835       9.19159       1.85920       1.19684     139.02377       0.26719       2.71075       0.96454       1.09603       0.17920   13710.08887    7727.60498    3428.47632       0.40620    2476.10498    4476.10498       1.77417 
   6917.00000       8.75000      72.13371     128.65291     130.17735     205.74866       0.00000      16.83641    -999.25000      67.89455     116.37394     281.20035       9.26627       9.18175       1.84235       1.24796     137.61914       0.27075       2.74104       0.96640       1.17795       0.17351   13863.14453    7772.85205    3359.27295       0.35946    2476.56494    4476.56494       1.78353 
   6917.50000       8.75000      71.65578     128.41168     129.47838     205.50134       0.00000      17.03425    -999.25000      66.42145     117.27320     281.35559       9.27835       9.19533       1.82214       1.24459     136.28900       0.27391       2.75538       0.97106       0.82725       0.17013   13955.60742    7787.45361    3236.19067       0.33111    2477.22998    4477.22998       1.79206 
   6918.00000       8.75000      71.38094     128.24078     128.91017     205.00171       0.00000      16.97419    -999.25000      65.04581     114.45943     281.51450       9.24092       9.23320       1.81326       1.22759     135.76857       0.27555       2.75235       0.97453       0.52062       0.16818   14009.34180    7797.83154    3174.63647       0.31633    2478.58984    4478.58984       1.79657 
   6918.50000       8.75000      71.24863     128.09901     128.43414     204.52504       0.00000      17.21564    -999.25000      63.95230     111.62096     281.60440       9.26627       9.23234       1.74609       1.19432     135.76363       0.27604       2.75310       0.97673       0.26128       0.16725   14035.35840    7806.46143    3055.95239       0.30772    2480.21118    4480.21094       1.79792 
   6919.00000       8.75000      71.15049     127.90247     128.33705     204.19969       0.00000      17.31090    -999.25000      62.43208     107.71033     281.75223       9.25448       9.24786       1.71067       1.16236     135.73297       0.27593       2.74497       0.97896       0.33920       0.16655   14054.71680    7818.45752    3014.23804       0.28877    2482.01465    4482.01465       1.79763 
   6919.50000       8.75000      71.04346     127.78399     128.28261     204.11528       0.00000      17.59709    -999.25000      61.58721     106.94421     281.88361       9.25448       9.24786       1.68055       1.14189     134.62360       0.27631       2.72821       0.98068       0.38944       0.16580   14075.88965    7825.70654    3060.76196       0.29019    2484.16162    4484.16162       1.79867 
