~Version Information
VERS  .          2.0                              :CWLS Log Ascii Standard - Version 2.0
WRAP  .          NO                               :One line per depth step
~Well Information Block
#MNEM.UNIT       Data Type                        Information
#---------       ---------                        -------------------------------
STRT  .F         6780.00000                       :START DEPTH
STOP  .F         7804.00000                       :STOP DEPTH
STEP  .F          0.50000                         :INCREMENT 
NULL  .          -999.25                          :NULL DATA VALUE
COMP  .          NORTHEAST NATURAL ENERGY         :COMPANY
WELL  .          MIP_3H                           :WELL
FLD   .          MONONGALIA                       :FIELD
LOC   .          LONG  .DEG       -79.976624      :LOCATION
LOC1  .          LATI  .DEG       39.602203       :LOCATION
STAT  .          WEST VIRGINIA                    :STATE
CNTY  .          MONONGALIA                       :COUNTY
CTRY  .          USA                              :COUNTRY
DATE  .          05-SEP-2015                      :DATE
UWI   .          47-061-01707-00-00               :UNIQUE WELL UWI
API   .          47-061-01707-00-00               :API NUMBER
SRVC  .          SLB                              :SERVICE COMPANY
~Parameter Information Block
#MNEM.UNIT       Value                            Description
#---------       ---------                        -------------
LONG  .DEG       -79.976624                       :Well Surface Location
LATI  .DEG       39.602203                        :Well Surface Location
XWELL .DEG       -79.976624                       :X-coordinate of Well Head
YWELL .DEG       39.602203                        :Y-coordinate of Well Head
PDAT  .          GL                               :Permanent Datum               
EPD   .ft        1058.00                          :Elevation of Permanent Datum (PDAT) above Mean Sea Level
LMF   .          KB                               :Logging Measured From (Name of Working Datum)
APD   .ft        22.50                            :Elevation of Working Datum (LMF) Above Permanent Datum
EKB   .ft        1080.50                          :Elevation of Kelly Bushing Above Mean Sea Level
EGL   .ft        1058.00                          :Elevation of Ground Level Above Mean Sea Level
EDF   .ft        1080.50                          :Elevation of Derrick Floor Above Mean Sea Level
~Curve Information Block
#MNEM.UNIT       API Code            Curve    Description
#--------        --------------      -----    -------------------
DEPT  .F                             :0       Index
BS    .IN                            :1       Bit Size                      
DTCO  .US/F                          :2       Delta-T Compressional         
DTSM_FAST.US/F                       :3       Shear Slowness of Fast Shear Waves
DTSM_SLOW.US/F                       :4       Shear Slowness of Slow Shear Waves
DTST  .US/F                          :5       Delta-T Stoneley - Monopole Stoneley
FLAG  .                              :6       General Indicator Flag        
FSH_AZIM_ERR.DEG                     :7       Fast shear azimuth error      
FSH_AZIM_FILTERED.DEG                :8       Filtered estimate of fast shear azimuth from pad1 azimuth
FSH_P1NO.DEG                         :9       Estimated fast shear azimuth from pad1 azimuth in plane orthogonal to tool axis
GR_EDTC.GAPI                         :10      Gamma Ray                     
HAZIM .DEG                           :11      Hole Azimuth                  
HD1_PPC1.IN                          :12      PPC1 Hole Diameter 1          
HD2_PPC1.IN                          :13      PPC1 Hole Diameter 2          
MAXXENE_OVERALL.                     :14      Overall estimate of maximum cross energy
MINXENE_OVERALL.                     :15      Overall estimate of minimum cross energy
P1NO_MAST.DEG                        :16      Pad 1 Azimuth in Plane Orthogonal to Tool Axis (0 = True North), memorized to MAST
PR    .                              :17      Poisson's Ratio               
RHOB  .G/C3                          :18      Bulk Density                  
SDEVM .DEG                           :19      Sonde Deviation               
SLOANI.                              :20      Slowness based anisotropy     
SPHI  .V/V                           :21      Sonic Porosity                
SVCO  .FT/S                          :22      Sonic Compressional Velocity  
SVSH  .FT/S                          :23      Sonic Shear Velocity          
TENS  .LBF                           :24      Cable Tension                 
TIMANI.                              :25      Time based anisotropy         
TWB   .US                            :26      Time window begin             
TWE   .US                            :27      Time window end               
VPVS  .                              :28      Compressional to Shear Velocity Ratio
~Ascii Data Section
# ...
   7320.00000       8.75000      77.24826     134.80275     134.80275     206.53537       0.00000       8.52711    -999.25000      90.62086     127.94207     287.60748       9.04915       9.03355       2.17501       0.87254      78.04996       0.25553       2.72766       3.06755       0.00000       0.20968   12945.27539    7418.24609    3254.23804       0.48765    2568.13794    4568.13770       1.74506 
   7320.50000       8.75000      75.52655     131.95195     132.86183     206.28024       0.00000       8.95064    -999.25000      90.54046     119.70866     287.66028       9.04915       9.03355       2.15781       0.89051      76.74820       0.25638       2.77110       3.05680       0.68719       0.19750   13240.37695    7578.51611    3166.38110       0.46673    2564.70825    4564.70801       1.74709 
   7321.00000       8.75000      74.14050     130.40712     131.31700     206.16508       0.00000       8.86779    -999.25000      89.76251     112.12899     287.67538       9.06100       9.03355       2.18662       0.90186      76.59299       0.26120       2.79886       3.04339       0.69530       0.18770   13487.90430    7668.29297    3188.47632       0.39746    2561.63184    4561.63184       1.75892 
   7321.50000       8.75000      73.35723     129.13774     130.04762     206.14748       0.00000       8.73082    -999.25000      88.62006     112.49688     287.71704       9.06100       9.03355       2.22147       0.90934      75.89117       0.26179       2.78086       3.03229       0.70211       0.18216   13631.92090    7743.66943    3130.90503       0.36166    2558.65674    4558.65674       1.76040 
   7322.00000       8.75000      73.30421     129.96635     129.96635     206.17285       0.00000       9.04430    -999.25000      87.98290     113.23555     287.71637       9.06100       9.04629       2.18065       0.91656      75.39368       0.26673       2.74563       3.01988       0.00000       0.18178   13641.78027    7694.29932    3088.47607       0.33482    2555.47412    4555.47363       1.77297 
   7322.50000       8.75000      73.89831     130.58977     130.58977     206.20493       0.00000       9.92104    -999.25000      87.73846     121.21893     287.71112       9.04915       9.03355       2.09221       0.93152      75.23807       0.26447       2.71783       3.00933       0.00000       0.18599   13532.10938    7657.56787    3027.25000       0.25839    2551.69824    4551.69824       1.76716 
   7323.00000       8.75000      74.82764     131.53027     131.53027     206.27957       0.00000      10.36646    -999.25000      87.71259     120.63692     287.74512       9.05110       9.02295       2.05829       0.94778      73.62590       0.26074       2.72735       3.00107       0.00000       0.19256   13364.04492    7602.81250    3280.71436       0.23775    2547.57251    4547.57227       1.75778 
   7323.50000       8.75000      75.68732     131.59483     131.59483     206.32747       0.00000      10.36761    -999.25000      87.43817     129.30223     287.73773       9.04915       9.04629       2.06798       0.96146      72.91690       0.25284       2.73576       2.99515       0.00000       0.19864   13212.25293    7599.08252    3327.28589       0.24801    2543.26025    4543.26025       1.73866 
   7324.00000       8.75000      76.27561     131.51396     131.51396     206.35750       0.00000      10.64683    -999.25000      86.91781     131.29863     287.74612       9.04915       9.03355       2.03467       0.95944      72.68913       0.24656       2.73801       2.98938       0.00000       0.20280   13110.35059    7603.75537    3230.95239       0.23087    2538.22119    4538.22119       1.72419 
   7324.50000       8.75000      76.56847     131.48849     131.48849     206.51776       0.00000      10.99866    -999.25000      86.68336     130.03758     287.76358       9.04915       9.04629       1.97147       0.95113      72.40276       0.24346       2.72900       2.98481       0.00000       0.20487   13060.20508    7605.22803    3139.14307       0.19965    2532.40259    4532.40234       1.71727 
   7325.00000       8.75000      76.62961     131.60054     131.60054     206.81194       0.00000      11.44544    -999.25000      86.31158     123.21563     287.78119       9.04915       9.04629       1.91562       0.94446      71.88956       0.24350       2.72427       2.98099       0.00000       0.20530   13049.78613    7598.75293    3061.36377       0.16508    2525.67139    4525.67139       1.71736 
   7325.50000       8.75000      76.48758     131.81354     131.81354     207.09995       0.00000      11.61791    -999.25000      85.84871     116.97731     287.78778       9.04915       9.05903       1.87737       0.93760      71.35288       0.24618       2.71995       2.97601       0.00000       0.20430   13074.01855    7586.47412    3062.30005       0.14080    2518.48096    4518.48145       1.72333 
   7326.00000       8.75000      76.18005     131.98747     131.98747     207.25084       0.00000      11.59689    -999.25000      85.51523     119.81715     287.79553       9.04915       9.08628       1.83335       0.91711      71.27458       0.25023       2.72243       2.97269       0.00000       0.20212   13126.79688    7576.47656    3398.85718       0.11554    2511.55225    4511.55225       1.73257 
   7326.50000       8.75000      75.77932     131.75520     131.75520     206.99069       0.00000      11.55667    -999.25000      85.03823     120.55114     287.81454       9.03702       9.08628       1.78391       0.88443      70.85351       0.25284       2.71707       2.96938       0.00000       0.19929   13196.21289    7589.83301    3427.90918       0.09261    2505.02490    4505.02539       1.73867 
   7327.00000       8.75000      75.38785     131.34677     131.34677     206.66817       0.00000      11.44284    -999.25000      84.33887     124.11232     287.81927       9.04915       9.07266       1.72612       0.85652      70.51963       0.25437       2.70704       2.96573       0.00000       0.19652   13264.73730    7613.43408    3352.90479       0.10540    2499.04883    4499.04883       1.74228 
   7327.50000       8.75000      75.10177     130.81688     130.81688     206.37143       0.00000      11.65579    -999.25000      83.64311     125.14163     287.81192       9.02518       9.07354       1.62938       0.84294      70.29403       0.25419       2.69793       2.96111       0.00000       0.19450   13315.26562    7644.27344    3303.85718       0.15635    2494.00415    4494.00439       1.74186 
   7328.00000       8.75000      74.94970     130.04488     130.04488     206.32242       0.00000      11.89263    -999.25000      82.74757     124.04967     287.82236       9.09708       9.11174       1.53025       0.82971      69.78893       0.25131       2.70143       2.95462       0.00000       0.19342   13342.28125    7689.65332    3237.09082       0.15634    2489.27148    4489.27148       1.73510 
   7328.50000       8.75000      74.78187     129.13026     129.13026     206.30504       0.00000      11.52750    -999.25000      80.75444     121.63999     287.82764       9.09708       9.11174       1.47067       0.81932      67.63413       0.24769       2.70945       2.94556       0.00000       0.19223   13372.22559    7744.11816    3244.14990       0.11445    2485.42163    4485.42188       1.72676 
   7329.00000       8.75000      74.36990     127.90878     127.90878     206.24237       0.00000      10.78122    -999.25000      79.39507     118.84447     287.81378       9.16862       9.32207       1.44807       0.81124      66.79449       0.24464       2.71755       2.93463       0.00000       0.18932   13446.29980    7818.07178    3299.77295       0.10841    2482.67236    4482.67236       1.71990 
   7329.50000       8.75000      73.71936     126.37348     126.37348     206.16805       0.00000      10.11662    -999.25000      78.66659     122.06594     287.76550       9.15680       9.19159       1.43543       0.78754      66.70918       0.24209       2.72306       2.92249       0.00000       0.18472   13564.95801    7913.05273    3324.23828       0.08585    2480.15454    4480.15430       1.71425 
