~Version Information
VERS  .          2.0                              :CWLS Log Ascii Standard - Version 2.0
WRAP  .          NO                               :One line per depth step
~Well Information Block
#MNEM.UNIT       Data Type                        Information
#---------       ---------                        -------------------------------
STRT  .F         6780.00000                       :START DEPTH
STOP  .F         7804.00000                       :STOP DEPTH
STEP  .F          0.50000                         :INCREMENT 
NULL  .          -999.25                          :NULL DATA VALUE
COMP  .          NORTHEAST NATURAL ENERGY         :COMPANY
WELL  .          MIP_3H                           :WELL
FLD   .          MONONGALIA                       :FIELD
LOC   .          LONG  .DEG       -79.976624      :LOCATION
LOC1  .          LATI  .DEG       39.602203       :LOCATION
STAT  .          WEST VIRGINIA                    :STATE
CNTY  .          MONONGALIA                       :COUNTY
CTRY  .          USA                              :COUNTRY
DATE  .          05-SEP-2015                      :DATE
UWI   .          47-061-01707-00-00               :UNIQUE WELL UWI
API   .          47-061-01707-00-00               :API NUMBER
SRVC  .          SLB                              :SERVICE COMPANY
~Parameter Information Block
#MNEM.UNIT       Value                            Description
#---------       ---------                        -------------
LONG  .DEG       -79.976624                       :Well Surface Location
LATI  .DEG       39.602203                        :Well Surface Location
XWELL .DEG       -79.976624                       :X-coordinate of Well Head
YWELL .DEG       39.602203                        :Y-coordinate of Well Head
PDAT  .          GL                               :Permanent Datum               
EPD   .ft        1058.00                          :Elevation of Permanent Datum (PDAT) above Mean Sea Level
LMF   .          KB                               :Logging Measured From (Name of Working Datum)
APD   .ft        22.50                            :Elevation of Working Datum (LMF) Above Permanent Datum
EKB   .ft        1080.50                          :Elevation of Kelly Bushing Above Mean Sea Level
EGL   .ft        1058.00                          :Elevation of Ground Level Above Mean Sea Level
EDF   .ft        1080.50                          :Elevation of Derrick Floor Above Mean Sea Level
~Curve Information Block
#MNEM.UNIT       API Code            Curve    Description
#--------        --------------      -----    -------------------
DEPT  .F                             :0       Index
BS    .IN                            :1       Bit Size                      
DTCO  .US/F                          :2       Delta-T Compressional         
DTSM_FAST.US/F                       :3       Shear Slowness of Fast Shear Waves
DTSM_SLOW.US/F                       :4       Shear Slowness of Slow Shear Waves
DTST  .US/F                          :5       Delta-T Stoneley - Monopole Stoneley
FLAG  .                              :6       General Indicator Flag        
FSH_AZIM_ERR.DEG                     :7       Fast shear azimuth error      
FSH_AZIM_FILTERED.DEG                :8       Filtered estimate of fast shear azimuth from pad1 azimuth
FSH_P1NO.DEG                         :9       Estimated fast shear azimuth from pad1 azimuth in plane orthogonal to tool axis
GR_EDTC.GAPI                         :10      Gamma Ray                     
HAZIM .DEG                           :11      Hole Azimuth                  
HD1_PPC1.IN                          :12      PPC1 Hole Diameter 1          
HD2_PPC1.IN                          :13      PPC1 Hole Diameter 2          
MAXXENE_OVERALL.                     :14      Overall estimate of maximum cross energy
MINXENE_OVERALL.                     :15      Overall estimate of minimum cross energy
P1NO_MAST.DEG                        :16      Pad 1 Azimuth in Plane Orthogonal to Tool Axis (0 = True North), memorized to MAST
PR    .                              :17      Poisson's Ratio               
RHOB  .G/C3                          :18      Bulk Density                  
SDEVM .DEG                           :19      Sonde Deviation               
SLOANI.                              :20      Slowness based anisotropy     
SPHI  .V/V                           :21      Sonic Porosity                
SVCO  .FT/S                          :22      Sonic Compressional Velocity  
SVSH  .FT/S                          :23      Sonic Shear Velocity          
TENS  .LBF                           :24      Cable Tension                 
TIMANI.                              :25      Time based anisotropy         
TWB   .US                            :26      Time window begin             
TWE   .US                            :27      Time window end               
VPVS  .                              :28      Compressional to Shear Velocity Ratio
~Ascii Data Section
# ...
   7590.00000       8.75000      56.30246      88.25006      88.72488     204.27905       0.00000       7.87231    -999.25000     154.61224      37.67682     253.06447       8.97690       8.99353       2.12997       0.76931      53.34931       0.15679       2.61612       0.94431       0.53659       0.06154   17761.21484   11331.43652    3184.41675       0.20874    1937.95581    3937.95581       1.56743 
   7590.50000       8.75000      56.13918      88.23019      88.60417     204.18507       0.00000       7.73956    -999.25000     154.14676      33.49325     253.83154       8.97690       9.00628       2.14514       0.77402      52.70745       0.15987       2.60866       0.92468       0.42297       0.06039   17812.87109   11333.98828    3166.20825       0.24366    1938.65820    3938.65820       1.57163 
   7591.00000       8.75000      56.10791      88.09749      88.30414     204.14558       0.00000       7.63617    -999.25000     153.83952      33.12794     254.56232       8.96474       8.98077       2.15818       0.77537      52.07968       0.15878       2.60147       0.91020       0.23429       0.06017   17822.79883   11351.06152    3176.20825       0.27858    1938.81665    3938.81641       1.57014 
   7591.50000       8.75000      56.07486      88.00769      88.00769     204.22591       0.00000       7.57267    -999.25000     153.53726      35.68799     255.29051       8.95289       8.99353       2.16821       0.77684      51.30116       0.15829       2.60040       0.89810       0.00000       0.05994   17833.30273   11362.64355    3153.50000       0.30007    1938.96826    3938.96826       1.56947 
   7592.00000       8.75000      55.95713      87.70515      87.70515     204.36214       0.00000       7.70149    -999.25000     152.91364      38.72171     255.99269       8.95259       8.98077       2.17273       0.78084      50.59484       0.15674       2.59970       0.88720       0.00000       0.05910   17870.82227   11401.83984    3260.34790       0.28420    1939.91602    3939.91602       1.56736 
   7592.50000       8.75000      55.98718      87.54389      87.54389     204.49477       0.00000       8.49300    -999.25000     152.17657      35.37524     256.47754       8.95259       8.98077       2.16665       0.80309      49.78522       0.15397       2.59381       0.88004       0.00000       0.05932   17861.23242   11422.84180    3234.83350       0.25339    1941.73755    3941.73779       1.56364 
   7593.00000       8.75000      56.12063      87.33502      87.83006     204.40863       0.00000       9.03170    -999.25000     151.56885      32.60551     256.88101       8.94073       9.00628       2.13161       0.82044      48.89542       0.14832       2.57732       0.87318       0.56522       0.06026   17818.75977   11450.16016    3173.16675       0.24468    1943.26807    3943.26807       1.55620 
   7593.50000       8.75000      56.54277      87.70168      88.61554     204.33893       0.00000       8.85704    -999.25000     150.92172      33.84704     257.20978       8.95259       8.98077       2.12138       0.82232      48.29383       0.14433       2.56538       0.86606       1.03660       0.06324   17685.72656   11402.29004    3188.04175       0.25112    1943.59888    3943.59888       1.55107 
   7594.00000       8.75000      56.96806      88.58060      89.51669     204.38042       0.00000       8.72436    -999.25000     150.30502      38.82935     257.51517       8.94278       8.99658       2.16928       0.82933      47.47681       0.14733       2.56978       0.85432       1.05121       0.06625   17553.69531   11289.15332    3150.58350       0.25934    1943.75562    3943.75562       1.55492 
   7594.50000       8.75000      57.63115      89.54484      90.12046     204.57686       0.00000       8.62181    -999.25000     149.93863      40.52617     257.76373       8.95259       8.99353       2.16830       0.83372      46.64991       0.14643       2.58297       0.84515       0.64077       0.07094   17351.72656   11167.58984    3157.65210       0.27308    1944.75562    3944.75562       1.55376 
   7595.00000       8.75000      58.17941      90.19373      90.73831     204.81462       0.00000       8.68288    -999.25000     149.58405      42.69236     258.01694       8.95463       8.98384       2.10195       0.84472      45.91137       0.14371       2.59660       0.83474       0.60198       0.07482   17188.21094   11087.24609    3133.58325       0.27210    1945.36157    3945.36157       1.55027 
   7595.50000       8.75000      58.47229      89.81946      91.17925     204.90187       0.00000       8.76687    -999.25000     149.21072      43.07104     258.31198       8.92887       8.96713       2.05014       0.86044      45.16013       0.13225       2.59968       0.82376       1.50255       0.07689   17102.11719   11133.44531    3148.47827       0.25967    1946.04944    3946.04932       1.53610 
   7596.00000       8.75000      58.46283      89.53375      91.41370     204.80261       0.00000       9.25070    -999.25000     148.39096      44.44737     258.72000       8.94073       8.98077       2.02519       0.88834      44.26083       0.12836       2.60268       0.81118       2.07790       0.07682   17104.88477   11168.97266    3186.70850       0.24644    1947.58447    3947.58447       1.53146 
   7596.50000       8.75000      57.79184      89.50318      91.37400     204.63734       0.00000       9.87435    -999.25000     147.24899      39.38002     259.07867       8.92887       8.96713       2.00836       0.91186      43.69291       0.14248       2.60677       0.80036       2.06861       0.07208   17303.48047   11172.78711    3162.20850       0.22142    1948.95923    3948.95898       1.54872 
   7597.00000       8.75000      57.56185      89.52206      90.88995     204.93567       0.00000      10.12455    -999.25000     146.36911      34.34697     259.48950       8.95463       8.98384       2.01241       0.92588      42.96793       0.14758       2.60009       0.79022       1.51640       0.07045   17372.61719   11170.43066    3148.65234       0.19703    1950.26489    3950.26489       1.55523 
   7597.50000       8.75000      57.85085      89.32784      90.27441     205.74925       0.00000      10.38780    -999.25000     145.40091      31.72647     259.85962       8.90455       8.98077       2.01488       0.94820      42.30730       0.13880       2.58847       0.78179       1.05407       0.07250   17285.83203   11194.71777    3156.33325       0.18244    1951.59607    3951.59619       1.54411 
   7598.00000       8.75000      58.34062      89.08659      89.43516     206.31419       0.00000      10.25009    -999.25000     144.71037      34.23683     260.22403       8.90455       8.99353       1.99721       0.94662      41.47675       0.12456       2.59060       0.77502       0.39051       0.07596   17140.71680   11225.03418    3161.17407       0.18430    1953.38184    3953.38184       1.52701 
   7598.50000       8.75000      58.16222      89.19104      89.20512     206.29912       0.00000      10.34147    -999.25000     143.57574      36.36716     260.55145       8.85616       8.98253       1.96831       0.94312      40.82838       0.13006       2.60345       0.76971       0.01578       0.07470   17193.29102   11211.88867    3145.12500       0.17175    1955.96973    3955.96973       1.53349 
   7599.00000       8.75000      57.05371      89.00841      89.00841     205.57153       0.00000      10.49117    -999.25000     142.12428      37.68761     260.71692       8.62772       8.64939       1.93074       0.94660      40.40028       0.15129       2.60629       0.76651       0.00000       0.06686   17527.34375   11234.89355    3184.00000       0.14499    1958.84106    3958.84082       1.56008 
   7599.50000       8.75000      56.26724      88.80627      88.80627     205.36926       0.00000      10.39520    -999.25000     141.08929      36.63482     260.76523       8.63964       8.64939       1.88594       0.94373      39.72337       0.16466       2.59203       0.76388       0.00000       0.06130   17772.33008   11260.46582    3143.20850       0.12562    1961.30652    3961.30664       1.57829 
