~Version Information
VERS  .          2.0                              :CWLS Log Ascii Standard - Version 2.0
WRAP  .          NO                               :One line per depth step
~Well Information Block
#MNEM.UNIT       Data Type                        Information
#---------       ---------                        -------------------------------
STRT  .F         6780.00000                       :START DEPTH
STOP  .F         7804.00000                       :STOP DEPTH
STEP  .F          0.50000                         :INCREMENT 
NULL  .          -999.25                          :NULL DATA VALUE
COMP  .          NORTHEAST NATURAL ENERGY         :COMPANY
WELL  .          MIP_3H                           :WELL
FLD   .          MONONGALIA                       :FIELD
LOC   .          LONG  .DEG       -79.976624      :LOCATION
LOC1  .          LATI  .DEG       39.602203       :LOCATION
STAT  .          WEST VIRGINIA                    :STATE
CNTY  .          MONONGALIA                       :COUNTY
CTRY  .          USA                              :COUNTRY
DATE  .          05-SEP-2015                      :DATE
UWI   .          47-061-01707-00-00               :UNIQUE WELL UWI
API   .          47-061-01707-00-00               :API NUMBER
SRVC  .          SLB                              :SERVICE COMPANY
~Parameter Information Block
#MNEM.UNIT       Value                            Description
#---------       ---------                        -------------
LONG  .DEG       -79.976624                       :Well Surface Location
LATI  .DEG       39.602203                        :Well Surface Location
XWELL .DEG       -79.976624                       :X-coordinate of Well Head
YWELL .DEG       39.602203                        :Y-coordinate of Well Head
PDAT  .          GL                               :Permanent Datum               
EPD   .ft        1058.00                          :Elevation of Permanent Datum (PDAT) above Mean Sea Level
LMF   .          KB                               :Logging Measured From (Name of Working Datum)
APD   .ft        22.50                            :Elevation of Working Datum (LMF) Above Permanent Datum
EKB   .ft        1080.50                          :Elevation of Kelly Bushing Above Mean Sea Level
EGL   .ft        1058.00                          :Elevation of Ground Level Above Mean Sea Level
EDF   .ft        1080.50                          :Elevation of Derrick Floor Above Mean Sea Level
~Curve Information Block
#MNEM.UNIT       API Code            Curve    Description
#--------        --------------      -----    -------------------
DEPT  .F                             :0       Index
BS    .IN                            :1       Bit Size                      
DTCO  .US/F                          :2       Delta-T Compressional         
DTSM_FAST.US/F                       :3       Shear Slowness of Fast Shear Waves
DTSM_SLOW.US/F                       :4       Shear Slowness of Slow Shear Waves
DTST  .US/F                          :5       Delta-T Stoneley - Monopole Stoneley
FLAG  .                              :6       General Indicator Flag        
FSH_AZIM_ERR.DEG                     :7       Fast shear azimuth error      
FSH_AZIM_FILTERED.DEG                :8       Filtered estimate of fast shear azimuth from pad1 azimuth
FSH_P1NO.DEG                         :9       Estimated fast shear azimuth from pad1 azimuth in plane orthogonal to tool axis
GR_EDTC.GAPI                         :10      Gamma Ray                     
HAZIM .DEG                           :11      Hole Azimuth                  
HD1_PPC1.IN                          :12      PPC1 Hole Diameter 1          
HD2_PPC1.IN                          :13      PPC1 Hole Diameter 2          
MAXXENE_OVERALL.                     :14      Overall estimate of maximum cross energy
MINXENE_OVERALL.                     :15      Overall estimate of minimum cross energy
P1NO_MAST.DEG                        :16      Pad 1 Azimuth in Plane Orthogonal to Tool Axis (0 = True North), memorized to MAST
PR    .                              :17      Poisson's Ratio               
RHOB  .G/C3                          :18      Bulk Density                  
SDEVM .DEG                           :19      Sonde Deviation               
SLOANI.                              :20      Slowness based anisotropy     
SPHI  .V/V                           :21      Sonic Porosity                
SVCO  .FT/S                          :22      Sonic Compressional Velocity  
SVSH  .FT/S                          :23      Sonic Shear Velocity          
TENS  .LBF                           :24      Cable Tension                 
TIMANI.                              :25      Time based anisotropy         
TWB   .US                            :26      Time window begin             
TWE   .US                            :27      Time window end               
VPVS  .                              :28      Compressional to Shear Velocity Ratio
~Ascii Data Section
# ...
   7660.00000       8.75000      61.67467      97.61400      97.61400     207.71672       0.00000       4.63078    -999.25000      63.23647      71.93790       3.03490       8.62710       8.63566       1.74990       0.68957     323.67496       0.16778       2.59702       3.27602       0.00000       0.09954   16214.11230   10244.43262    3215.42871       0.28121    2034.28003    4034.27979       1.58272 
   7660.50000       8.75000      62.79361      99.86607      99.86607     208.29128       0.00000       4.95458    -999.25000      62.82003      83.28186       2.93501       8.63901       8.64939       1.72559       0.67936     323.10989       0.17306       2.59922       3.31365       0.00000       0.10745   15925.18652   10013.41016    3219.09521       0.29118    2034.79614    4034.79614       1.59039 
   7661.00000       8.75000      63.99141     101.64895     102.66003     208.80141       0.00000       5.25285    -999.25000      62.61830      90.04239       2.86745       8.63901       8.63566       1.69165       0.67419     322.63849       0.17176       2.60934       3.34512       0.98975       0.11592   15627.09668    9837.78027    3242.68164       0.32130    2036.19043    4036.19043       1.58848 
   7661.50000       8.75000      64.46944     102.14881     104.29447     208.98900       0.00000       5.61467    -999.25000      62.44567      95.63139       2.76089       8.62710       8.63566       1.65717       0.67869     322.22797       0.16898       2.62087       3.38266       2.07869       0.11930   15511.22461    9789.63867    3186.95239       0.34480    2038.38184    4038.38184       1.58445 
   7662.00000       8.75000      63.64061     100.34188     102.83325     208.70361       0.00000       5.78912    -999.25000      62.31832      92.11969       2.65317       8.63901       8.63566       1.62505       0.68034     321.65182       0.16352       2.62600       3.42005       2.45244       0.11344   15713.23828    9965.92871    3225.28589       0.36187    2041.13391    4041.13379       1.57670 
   7662.50000       8.75000      61.86543      98.60429     100.27094     207.95076       0.00000       5.75471    -999.25000      61.71989      75.72240       2.54759       8.63901       8.63566       1.61008       0.68558     320.95532       0.17540       2.62316       3.45717       1.67607       0.10089   16164.11621   10141.54688    3212.23804       0.37773    2044.30200    4044.30200       1.59385 
   7663.00000       8.75000      59.87798      97.46426      98.28477     207.13191       0.00000       5.82057    -999.25000      60.85638      56.57610       2.44593       8.64167       8.63907       1.62139       0.70083     320.41534       0.19687       2.62018       3.49415       0.83832       0.08683   16700.63086   10260.17090    3237.90479       0.39914    2048.17432    4048.17432       1.62771 
   7663.50000       8.75000      58.38118      96.14323      96.44482     206.65103       0.00000       5.84437    -999.25000      60.32827      49.68063       2.35217       8.62710       8.62283       1.63168       0.71254     319.96310       0.20795       2.61823       3.52550       0.31320       0.07625   17128.80664   10401.14844    3220.22729       0.42281    2052.93701    4052.93701       1.64682 
   7664.00000       8.75000      57.82175      93.66740      93.92442     206.46074       0.00000       5.93999    -999.25000      59.87398      50.80966       2.22737       8.62710       8.63566       1.60576       0.71566     319.32422       0.19215       2.61599       3.56881       0.27402       0.07229   17294.52930   10676.07324    3205.52393       0.43046    2058.15283    4058.15283       1.61993 
   7664.50000       8.75000      57.75133      92.47411      92.47411     206.41449       0.00000       6.21324    -999.25000      59.17257      55.84305       2.08455       8.62710       8.63566       1.61026       0.72504     318.73947       0.18030       2.61500       3.61208       0.00000       0.07179   17315.61719   10813.83691    3203.81836       0.43818    2063.26855    4063.26855       1.60125 
   7665.00000       8.75000      58.27140      93.51916      93.51916     206.51488       0.00000       6.54998    -999.25000      58.26118      53.59366       1.93017       8.62710       8.63566       1.67437       0.75450     318.09790       0.18267       2.61817       3.65312       0.00000       0.07547   17161.07812   10692.99609    3241.23804       0.43644    2068.06860    4068.06860       1.60489 
   7665.50000       8.75000      59.33969      96.31422      96.31422     206.90669       0.00000       6.66865    -999.25000      57.57220      56.11621       1.76661       8.62710       8.63566       1.74180       0.78663     317.37845       0.19409       2.63175       3.69204       0.00000       0.08302   16852.12695   10382.68262    3203.00000       0.43860    2073.17749    4073.17749       1.62310 
   7666.00000       8.75000      60.84089      98.80952      98.80952     207.48238       0.00000       6.80060    -999.25000      56.84142      64.24164       1.56171       8.62710       8.63566       1.78702       0.81113     316.70206       0.19467       2.64498       3.73327       0.00000       0.09364   16436.31445   10120.48242    3237.77271       0.43821    2079.19629    4079.19629       1.62406 
   7666.50000       8.75000      62.53978     100.92732     100.92732     208.09827       0.00000       7.03392    -999.25000      55.97164      73.54733       1.34298       8.62710       8.63566       1.82639       0.82847     316.11206       0.18835       2.65024       3.77319       0.00000       0.10566   15989.82227    9908.12012    3223.14282       0.41775    2084.58569    4084.58569       1.61381 
   7667.00000       8.75000      63.58179     102.27893     102.87014     208.42535       0.00000       7.28753    -999.25000      55.30159      78.92391       1.07545       8.62710       8.63566       1.85761       0.83812     315.45993       0.18507       2.64339       3.81381       0.57637       0.11303   15727.77344    9777.18457    3222.52368       0.39899    2087.59717    4087.59717       1.60862 
   7667.50000       8.75000      63.77935     103.18394     104.03940     208.62144       0.00000       7.51867    -999.25000      55.07320      78.51779       0.85254       8.63901       8.63566       1.86184       0.84296     314.97980       0.19085       2.63331       3.84748       0.82564       0.11442   15679.05664    9691.43066    3232.18188       0.38383    2088.34961    4088.34961       1.61783 
   7668.00000       8.75000      63.44806     103.85465     104.09727     208.73264       0.00000       7.73309    -999.25000      54.44986      75.65823       0.58563       8.62710       8.63566       1.84160       0.85064     314.43784       0.20225       2.62936       3.88575       0.23334       0.11208   15760.92480    9628.84180    3235.42847       0.34646    2087.51221    4087.51221       1.63685 
   7668.50000       8.75000      63.30574     104.64117     104.83794     208.79265       0.00000       7.68827    -999.25000      53.54358      74.29752       0.34582       8.63901       8.63566       1.83034       0.85904     314.10370       0.21136       2.62697       3.91828       0.18786       0.11107   15796.35645    9556.46777    3230.04541       0.31141    2084.86475    4084.86475       1.65295 
   7669.00000       8.75000      63.67924     105.47357     105.87405     208.82619       0.00000       7.45232    -999.25000      52.99586      74.94593       0.05145       8.63901       8.63566       1.86520       0.87047     313.63461       0.21321       2.62418       3.95657       0.37898       0.11371   15703.70508    9481.04785    3196.80957       0.28934    2080.95825    4080.95825       1.65633 
   7669.50000       8.75000      64.21173     105.85999     106.39788     208.84793       0.00000       7.58001    -999.25000      52.46717      80.96439     359.80347       8.65124       8.63566       1.88535       0.88375     313.32425       0.20895       2.62535       3.98881       0.50682       0.11748   15573.47852    9446.43945    3237.59106       0.25819    2077.12207    4077.12207       1.64861 
