~Version Information
VERS  .          2.0                              :CWLS Log Ascii Standard - Version 2.0
WRAP  .          NO                               :One line per depth step
~Well Information Block
#MNEM.UNIT       Data Type                        Information
#---------       ---------                        -------------------------------
STRT  .F         6780.00000                       :START DEPTH
STOP  .F         7804.00000                       :STOP DEPTH
STEP  .F          0.50000                         :INCREMENT 
NULL  .          -999.25                          :NULL DATA VALUE
COMP  .          NORTHEAST NATURAL ENERGY         :COMPANY
WELL  .          MIP_3H                           :WELL
FLD   .          MONONGALIA                       :FIELD
LOC   .          LONG  .DEG       -79.976624      :LOCATION
LOC1  .          LATI  .DEG       39.602203       :LOCATION
STAT  .          WEST VIRGINIA                    :STATE
CNTY  .          MONONGALIA                       :COUNTY
CTRY  .          USA                              :COUNTRY
DATE  .          05-SEP-2015                      :DATE
UWI   .          47-061-01707-00-00               :UNIQUE WELL UWI
API   .          47-061-01707-00-00               :API NUMBER
SRVC  .          SLB                              :SERVICE COMPANY
~Parameter Information Block
#MNEM.UNIT       Value                            Description
#---------       ---------                        -------------
LONG  .DEG       -79.976624                       :Well Surface Location
LATI  .DEG       39.602203                        :Well Surface Location
XWELL .DEG       -79.976624                       :X-coordinate of Well Head
YWELL .DEG       39.602203                        :Y-coordinate of Well Head
PDAT  .          GL                               :Permanent Datum               
EPD   .ft        1058.00                          :Elevation of Permanent Datum (PDAT) above Mean Sea Level
LMF   .          KB                               :Logging Measured From (Name of Working Datum)
APD   .ft        22.50                            :Elevation of Working Datum (LMF) Above Permanent Datum
EKB   .ft        1080.50                          :Elevation of Kelly Bushing Above Mean Sea Level
EGL   .ft        1058.00                          :Elevation of Ground Level Above Mean Sea Level
EDF   .ft        1080.50                          :Elevation of Derrick Floor Above Mean Sea Level
~Curve Information Block
#MNEM.UNIT       API Code            Curve    Description
#--------        --------------      -----    -------------------
DEPT  .F                             :0       Index
BS    .IN                            :1       Bit Size                      
DTCO  .US/F                          :2       Delta-T Compressional         
DTSM_FAST.US/F                       :3       Shear Slowness of Fast Shear Waves
DTSM_SLOW.US/F                       :4       Shear Slowness of Slow Shear Waves
DTST  .US/F                          :5       Delta-T Stoneley - Monopole Stoneley
FLAG  .                              :6       General Indicator Flag        
FSH_AZIM_ERR.DEG                     :7       Fast shear azimuth error      
FSH_AZIM_FILTERED.DEG                :8       Filtered estimate of fast shear azimuth from pad1 azimuth
FSH_P1NO.DEG                         :9       Estimated fast shear azimuth from pad1 azimuth in plane orthogonal to tool axis
GR_EDTC.GAPI                         :10      Gamma Ray                     
HAZIM .DEG                           :11      Hole Azimuth                  
HD1_PPC1.IN                          :12      PPC1 Hole Diameter 1          
HD2_PPC1.IN                          :13      PPC1 Hole Diameter 2          
MAXXENE_OVERALL.                     :14      Overall estimate of maximum cross energy
MINXENE_OVERALL.                     :15      Overall estimate of minimum cross energy
P1NO_MAST.DEG                        :16      Pad 1 Azimuth in Plane Orthogonal to Tool Axis (0 = True North), memorized to MAST
PR    .                              :17      Poisson's Ratio               
RHOB  .G/C3                          :18      Bulk Density                  
SDEVM .DEG                           :19      Sonde Deviation               
SLOANI.                              :20      Slowness based anisotropy     
SPHI  .V/V                           :21      Sonic Porosity                
SVCO  .FT/S                          :22      Sonic Compressional Velocity  
SVSH  .FT/S                          :23      Sonic Shear Velocity          
TENS  .LBF                           :24      Cable Tension                 
TIMANI.                              :25      Time based anisotropy         
TWB   .US                            :26      Time window begin             
TWE   .US                            :27      Time window end               
VPVS  .                              :28      Compressional to Shear Velocity Ratio
~Ascii Data Section
# ...
   7450.00000       8.75000      87.57389     140.80371     140.85590     211.28903       0.00000       9.36341    -999.25000      84.17744     142.67831     270.91525       8.95373       9.07266       3.15984       0.92189     253.48135       0.18456       2.61383       1.38418       0.03706       0.28270   11418.92871    7102.08545    3108.91284       0.40833    2650.79614    4650.79590       1.60783 
   7450.50000       8.75000      88.47816     140.96765     141.44005     211.87968       0.00000       9.57867    -999.25000      83.67628     140.77336     270.93793       8.95373       9.05903       3.27611       0.97285     252.96704       0.17500       2.58983       1.38239       0.33455       0.28910   11302.22461    7093.82617    3280.39136       0.28971    2650.51929    4650.51953       1.59325 
   7451.00000       8.75000      89.37192     141.68385     142.55324     212.89160       0.00000      10.20052    -999.25000      83.34837     139.34201     270.94034       8.95373       9.07176       3.31136       1.02098     252.69618       0.16959       2.57738       1.38016       0.61173       0.29542   11189.19727    7057.96729    3209.62524       0.16802    2651.29150    4651.29199       1.58533 
   7451.50000       8.75000      89.93231     142.59050     142.92584     213.98026       0.00000      11.35226    -999.25000      83.28052     137.20570     270.92157       8.95373       9.05903       3.19243       1.06014     252.43111       0.16973       2.59208       1.37763       0.23490       0.29938   11119.47363    7013.08984    3119.60864       0.07793    2653.00244    4653.00244       1.58553 
   7452.00000       8.75000      88.84028     141.57358     141.57358     214.46086       0.00000      12.37337    -999.25000      82.75723     133.77928     270.88303       8.95373       9.03355       2.91951       1.08287     251.93401       0.17521       2.63597       1.37486       0.00000       0.29166   11256.15527    7063.46484    3071.27271       0.02998    2653.46191    4653.46191       1.59357 
   7452.50000       8.75000      84.83677     138.15378     138.15378     213.99709       0.00000      12.58170    -999.25000      81.85602     123.99420     270.79483       8.96560       9.05903       2.77694       1.10294     251.43510       0.19732       2.67474       1.37270       0.00000       0.26334   11787.34180    7238.31104    3026.26099       0.03252    2657.23999    4657.24023       1.62847 
   7453.00000       8.75000      79.04218     135.16368     135.16368     212.86926       0.00000      12.27805    -999.25000      80.58167     109.65934     270.68344       8.95373       9.03355       2.89840       1.13115     251.17618       0.24015       2.69822       1.37138       0.00000       0.22236   12651.47266    7398.43701    3113.21753       0.11642    2666.16602    4666.16602       1.71002 
   7453.50000       8.75000      75.35673     134.06998     134.06998     211.80228       0.00000      12.43415    -999.25000      79.11542     113.72626     270.58691       8.95373       9.05903       3.04825       1.17655     250.51263       0.26909       2.69758       1.37134       0.00000       0.19630   13270.21484    7458.79150    3035.95825       0.20069    2675.77832    4675.77832       1.77914 
   7454.00000       8.75000      76.73447     135.79793     137.18208     211.35388       0.00000      13.14118    -999.25000      78.84178     134.32007     270.51361       8.95373       9.03355       3.11628       1.22430     249.76025       0.26547       2.67223       1.37198       1.01411       0.20604   13031.95215    7363.88281    3031.90918       0.19147    2686.00684    4686.00684       1.76971 
   7454.50000       8.75000      83.59697     140.32892     141.58766     211.66331       0.00000      13.98557    -999.25000      79.08681     164.47552     270.40497       8.96560       9.04629       3.00473       1.28466     249.26331       0.22495       2.63405       1.37254       0.89299       0.25458   11962.15625    7126.11475    3222.37500       0.23202    2696.27173    4696.27148       1.67864 
   7455.00000       8.75000      90.48116     147.71948     148.74146     212.32072       0.00000      15.02638    -999.25000      78.93854     184.14905     270.39023       8.96560       9.04629       2.74842       1.33924     248.71902       0.19977       2.59669       1.37464       0.68945       0.30326   11052.02441    6769.58789    3181.86963       0.26227    2706.06299    4706.06348       1.63260 
   7455.50000       8.75000      94.75406     155.24464     155.24464     212.76419       0.00000      16.00212    -999.25000      78.67979     189.90002     270.34955       8.95373       9.03355       2.52735       1.34456     247.96941       0.20315       2.57687       1.37468       0.00000       0.33348   10553.63770    6441.44629    3104.65210       0.16807    2715.56470    4715.56494       1.63840 
   7456.00000       8.75000      95.13152     159.52934     159.56526     212.69414       0.00000      16.69543    -999.25000      77.95838     189.80267     270.29529       8.95373       9.04629       2.35945       1.34290     247.38510       0.22408       2.56737       1.37475       0.02251       0.33615   10511.76367    6268.43945    3154.82617       0.07199    2725.69653    4725.69678       1.67693 
   7456.50000       8.75000      95.02528     162.07658     162.99971     212.35374       0.00000      16.21938    -999.25000      76.09299     191.63182     270.42657       8.95373       9.03355       2.35176       1.34329     246.98567       0.23810       2.56772       1.38644       0.56794       0.33540   10523.51465    6169.92285    3203.08716       0.05793    2736.98926    4736.98926       1.70562 
   7457.00000       8.75000      94.92581     162.67149     165.04883     212.17215       0.00000      15.38578    -999.25000      73.92197     194.95576     270.33115       8.95373       9.03355       2.38916       1.32666     246.59544       0.24182       2.57741       1.38705       1.45083       0.33469   10534.54297    6147.35840    3163.50000       0.11794    2748.82764    4748.82764       1.71367 
   7457.50000       8.75000      95.03439     163.52457     166.53258     212.28371       0.00000      14.95084    -999.25000      72.80419     198.21445     270.15619       8.95373       9.03355       2.40835       1.31677     245.95010       0.24500       2.58590       1.38602       1.82272       0.33546   10522.50586    6115.28906    3109.30444       0.12823    2759.96924    4759.96924       1.72069 
   7458.00000       8.75000      95.26312     163.97664     167.31117     212.50537       0.00000      15.08906    -999.25000      72.49889     196.82866     269.76413       8.96560       9.03355       2.42310       1.34718     245.07837       0.24527       2.58977       1.38004       2.01307       0.33708   10497.24121    6098.42969    3060.30444       0.06437    2770.22754    4770.22754       1.72130 
   7458.50000       8.75000      95.42699     163.98868     167.08957     212.63939       0.00000      15.64539    -999.25000      71.82362     196.66623     269.51312       8.96560       9.04629       2.44025       1.37555     244.91098       0.24400       2.59249       1.37957       1.87321       0.33824   10479.21582    6097.98193    3125.73926       0.04821    2780.66870    4780.66895       1.71847 
   7459.00000       8.75000      95.63898     163.95598     166.15042     212.68100       0.00000      15.04357    -999.25000      71.06599     197.07773     269.23672       8.96560       9.05903       2.53304       1.36435     244.90936       0.24212       2.59089       1.37915       1.32954       0.33974   10455.98730    6099.19824    3185.86963       0.05692    2791.62939    4791.62939       1.71432 
   7459.50000       8.75000      96.04983     163.85107     165.03825     212.75197       0.00000      13.94895    -999.25000      69.80360     199.47095     268.78848       8.96560       9.05903       2.53952       1.31706     244.07516       0.23823       2.58090       1.37552       0.72193       0.34264   10411.26270    6103.10303    3145.79175       0.03154    2802.59033    4802.59033       1.70590 
