~Version Information
VERS  .          2.0                              :CWLS Log Ascii Standard - Version 2.0
WRAP  .          NO                               :One line per depth step
~Well Information Block
#MNEM.UNIT       Data Type                        Information
#---------       ---------                        -------------------------------
STRT  .F         6780.00000                       :START DEPTH
STOP  .F         7804.00000                       :STOP DEPTH
STEP  .F          0.50000                         :INCREMENT 
NULL  .          -999.25                          :NULL DATA VALUE
COMP  .          NORTHEAST NATURAL ENERGY         :COMPANY
WELL  .          MIP_3H                           :WELL
FLD   .          MONONGALIA                       :FIELD
LOC   .          LONG  .DEG       -79.976624      :LOCATION
LOC1  .          LATI  .DEG       39.602203       :LOCATION
STAT  .          WEST VIRGINIA                    :STATE
CNTY  .          MONONGALIA                       :COUNTY
CTRY  .          USA                              :COUNTRY
DATE  .          05-SEP-2015                      :DATE
UWI   .          47-061-01707-00-00               :UNIQUE WELL UWI
API   .          47-061-01707-00-00               :API NUMBER
SRVC  .          SLB                              :SERVICE COMPANY
~Parameter Information Block
#MNEM.UNIT       Value                            Description
#---------       ---------                        -------------
LONG  .DEG       -79.976624                       :Well Surface Location
LATI  .DEG       39.602203                        :Well Surface Location
XWELL .DEG       -79.976624                       :X-coordinate of Well Head
YWELL .DEG       39.602203                        :Y-coordinate of Well Head
PDAT  .          GL                               :Permanent Datum               
EPD   .ft        1058.00                          :Elevation of Permanent Datum (PDAT) above Mean Sea Level
LMF   .          KB                               :Logging Measured From (Name of Working Datum)
APD   .ft        22.50                            :Elevation of Working Datum (LMF) Above Permanent Datum
EKB   .ft        1080.50                          :Elevation of Kelly Bushing Above Mean Sea Level
EGL   .ft        1058.00                          :Elevation of Ground Level Above Mean Sea Level
EDF   .ft        1080.50                          :Elevation of Derrick Floor Above Mean Sea Level
~Curve Information Block
#MNEM.UNIT       API Code            Curve    Description
#--------        --------------      -----    -------------------
DEPT  .F                             :0       Index
BS    .IN                            :1       Bit Size                      
DTCO  .US/F                          :2       Delta-T Compressional         
DTSM_FAST.US/F                       :3       Shear Slowness of Fast Shear Waves
DTSM_SLOW.US/F                       :4       Shear Slowness of Slow Shear Waves
DTST  .US/F                          :5       Delta-T Stoneley - Monopole Stoneley
FLAG  .                              :6       General Indicator Flag        
FSH_AZIM_ERR.DEG                     :7       Fast shear azimuth error      
FSH_AZIM_FILTERED.DEG                :8       Filtered estimate of fast shear azimuth from pad1 azimuth
FSH_P1NO.DEG                         :9       Estimated fast shear azimuth from pad1 azimuth in plane orthogonal to tool axis
GR_EDTC.GAPI                         :10      Gamma Ray                     
HAZIM .DEG                           :11      Hole Azimuth                  
HD1_PPC1.IN                          :12      PPC1 Hole Diameter 1          
HD2_PPC1.IN                          :13      PPC1 Hole Diameter 2          
MAXXENE_OVERALL.                     :14      Overall estimate of maximum cross energy
MINXENE_OVERALL.                     :15      Overall estimate of minimum cross energy
P1NO_MAST.DEG                        :16      Pad 1 Azimuth in Plane Orthogonal to Tool Axis (0 = True North), memorized to MAST
PR    .                              :17      Poisson's Ratio               
RHOB  .G/C3                          :18      Bulk Density                  
SDEVM .DEG                           :19      Sonde Deviation               
SLOANI.                              :20      Slowness based anisotropy     
SPHI  .V/V                           :21      Sonic Porosity                
SVCO  .FT/S                          :22      Sonic Compressional Velocity  
SVSH  .FT/S                          :23      Sonic Shear Velocity          
TENS  .LBF                           :24      Cable Tension                 
TIMANI.                              :25      Time based anisotropy         
TWB   .US                            :26      Time window begin             
TWE   .US                            :27      Time window end               
VPVS  .                              :28      Compressional to Shear Velocity Ratio
~Ascii Data Section
# ...
   7050.00000       8.75000      73.21294     128.36774     128.70111     204.62175       0.00000       3.76860    -999.25000     115.67519     116.58680     271.74933       8.97920       9.05018       2.19090       0.64689      19.37311       0.25895       2.71778       3.48025       0.25937       0.18114   13658.78809    7790.11963    3093.66675       0.76550    2461.32642    4461.32617       1.75335 
   7050.50000       8.75000      73.14162     127.42631     127.68278     204.41338       0.00000       3.77032    -999.25000     115.35103     121.37801     271.78287       8.98933       9.07442       2.18197       0.65421      19.15888       0.25433       2.70247       3.48096       0.20107       0.18063   13672.10547    7847.67285    2963.38110       0.76874    2463.69287    4463.69287       1.74219 
   7051.00000       8.75000      72.93759     126.61520     127.21378     204.76750       0.00000       3.72887    -999.25000     114.92159     117.06350     271.80591       8.98933       9.03443       2.23076       0.65810      18.59462       0.25167       2.69808       3.48090       0.47165       0.17919   13710.35156    7897.94629    3048.40015       0.78486    2466.48486    4466.48486       1.73594 
   7051.50000       8.75000      72.85933     126.30143     127.05517     204.90979       0.00000       3.51765    -999.25000     114.66417     116.81744     271.83270       9.00345       9.03745       2.26654       0.66341      18.04105       0.25062       2.70256       3.48088       0.59500       0.17864   13725.07812    7917.56689    3091.66675       0.78897    2468.44287    4468.44287       1.73350 
   7052.00000       8.75000      73.01535     126.99627     127.56078     205.02197       0.00000       3.30846    -999.25000     114.47293     114.33086     271.87457       8.98933       9.04718       2.27223       0.67456      18.04086       0.25311       2.70342       3.48240       0.44353       0.17974   13695.75000    7874.24707    3067.55005       0.77610    2468.60254    4468.60254       1.73931 
   7052.50000       8.75000      73.26702     127.71178     128.00725     205.08472       0.00000       3.20878    -999.25000     114.23146     116.03260     271.90201       8.98933       9.04718       2.26188       0.67434      17.97375       0.25471       2.69874       3.48403       0.23108       0.18152   13648.70605    7830.13086    2982.71436       0.76731    2467.26465    4467.26465       1.74310 
   7053.00000       8.75000      73.58057     127.97677     128.39073     205.25264       0.00000       3.17427    -999.25000     114.01188     114.96508     271.93292       8.98933       9.05992       2.25155       0.67038      17.53911       0.25310       2.69579       3.48457       0.32295       0.18374   13590.54492    7813.91797    2976.14282       0.75650    2465.99268    4465.99268       1.73927 
   7053.50000       8.75000      74.11560     128.27408     129.00380     205.49696       0.00000       3.18117    -999.25000     113.78638     115.86432     271.96097       8.98933       9.04718       2.22391       0.66903      16.33875       0.24943       2.69963       3.48603       0.56726       0.18752   13492.43555    7795.80713    3032.05005       0.74052    2464.84424    4464.84424       1.73073 
   7054.00000       8.75000      74.94717     129.04750     130.22856     205.90535       0.00000       3.30035    -999.25000     113.58493     117.43861     271.99622       8.99133       9.05018       2.16926       0.67328      16.18459       0.24552       2.69655       3.48825       0.91105       0.19340   13342.73145    7749.08447    3043.66675       0.72416    2463.13770    4463.13770       1.72185 
   7054.50000       8.75000      76.03687     130.39168     131.74348     206.23262       0.00000       3.41754    -999.25000     113.29209     117.20830     272.01718       8.98933       9.04718       2.15103       0.67247      16.16967       0.24236       2.69004       3.48973       1.03138       0.20111   13151.51367    7669.20117    2964.85010       0.71770    2461.33984    4461.33984       1.71485 
   7055.00000       8.75000      76.57910     131.21835     132.23254     206.44806       0.00000       3.63703    -999.25000     113.00874     123.39938     272.03638       8.98933       9.06080       2.14199       0.67040      16.47914       0.24175       2.68075       3.48923       0.76993       0.20494   13058.39258    7620.88525    2942.85718       0.71453    2459.23193    4459.23193       1.71350 
   7055.50000       8.75000      76.13128     130.78049     131.17139     206.26936       0.00000       3.91859    -999.25000     112.72889     122.74315     272.05719       8.99133       9.03745       2.14797       0.67053      15.85510       0.24371       2.67725       3.48984       0.29845       0.20178   13135.20605    7646.40088    2996.94995       0.70621    2456.40063    4456.40039       1.71783 
   7056.00000       8.75000      74.84740     129.03227     129.03227     206.13110       0.00000       4.13442    -999.25000     112.39835     124.62321     272.06348       9.00146       9.03745       2.14783       0.66190      15.22388       0.24645       2.67624       3.49050       0.00000       0.19270   13360.51855    7749.99902    3044.80957       0.67993    2452.50854    4452.50879       1.72394 
   7056.50000       8.75000      73.61832     127.69650     127.69650     205.96127       0.00000       4.43450    -999.25000     111.87862     121.52258     272.08145       8.98933       9.04805       2.13844       0.69037      15.09609       0.25109       2.68492       3.48939       0.00000       0.18401   13583.57422    7831.06787    2965.84985       0.63104    2448.95264    4448.95264       1.73457 
   7057.00000       8.75000      73.19155     127.42480     127.42480     205.76874       0.00000       4.41800    -999.25000     111.26476     120.06084     272.10239       8.99133       9.03745       2.20730       0.70319      14.69398       0.25382       2.70008       3.49024       0.00000       0.18099   13662.77930    7847.76562    3042.39990       0.62303    2447.06494    4447.06494       1.74098 
   7057.50000       8.75000      73.48193     127.64780     127.64780     205.60980       0.00000       4.33025    -999.25000     111.01167     118.64814     272.11121       8.96735       9.03745       2.29603       0.69041      14.06470       0.25218       2.71129       3.49048       0.00000       0.18304   13608.78906    7834.05566    3004.47632       0.64984    2445.77344    4445.77344       1.73713 
   7058.00000       8.75000      74.26247     127.74130     128.19127     205.54367       0.00000       4.56312    -999.25000     110.84560     120.49036     272.11902       9.00146       9.03443       2.29653       0.69821      13.69062       0.24475       2.70919       3.49097       0.35163       0.18856   13465.75098    7828.32178    2958.65015       0.63239    2444.57812    4444.57812       1.72013 
   7058.50000       8.75000      75.05338     128.11705     128.94936     205.61272       0.00000       4.87256    -999.25000     110.45193     123.87798     272.12067       8.99133       9.03745       2.20987       0.69222      13.41273       0.23875       2.70190       3.49136       0.64754       0.19415   13323.84961    7805.36230    3046.90479       0.57616    2443.61816    4443.61816       1.70701 
   7059.00000       8.75000      75.73328     128.71855     129.89076     205.83029       0.00000       5.02298    -999.25000     109.97933     129.32237     272.11987       8.99133       9.03745       2.15422       0.68746      13.34422       0.23527       2.69521       3.49094       0.90655       0.19896   13204.23535    7768.88770    3152.69995       0.53232    2442.82275    4442.82324       1.69963 
   7059.50000       8.75000      76.12533     129.06366     130.27711     206.10533       0.00000       4.93943    -999.25000     109.60842     127.84249     272.11938       9.00146       9.03745       2.18281       0.68354      13.04444       0.23325       2.69626       3.49066       0.93580       0.20174   13136.23242    7748.11426    3134.71436       0.51815    2442.15698    4442.15723       1.69541 
