~Version Information
VERS  .          2.0                              :CWLS Log Ascii Standard - Version 2.0
WRAP  .          NO                               :One line per depth step
~Well Information Block
#MNEM.UNIT       Data Type                        Information
#---------       ---------                        -------------------------------
STRT  .F         6780.00000                       :START DEPTH
STOP  .F         7804.00000                       :STOP DEPTH
STEP  .F          0.50000                         :INCREMENT 
NULL  .          -999.25                          :NULL DATA VALUE
COMP  .          NORTHEAST NATURAL ENERGY         :COMPANY
WELL  .          MIP_3H                           :WELL
FLD   .          MONONGALIA                       :FIELD
LOC   .          LONG  .DEG       -79.976624      :LOCATION
LOC1  .          LATI  .DEG       39.602203       :LOCATION
STAT  .          WEST VIRGINIA                    :STATE
CNTY  .          MONONGALIA                       :COUNTY
CTRY  .          USA                              :COUNTRY
DATE  .          05-SEP-2015                      :DATE
UWI   .          47-061-01707-00-00               :UNIQUE WELL UWI
API   .          47-061-01707-00-00               :API NUMBER
SRVC  .          SLB                              :SERVICE COMPANY
~Parameter Information Block
#MNEM.UNIT       Value                            Description
#---------       ---------                        -------------
LONG  .DEG       -79.976624                       :Well Surface Location
LATI  .DEG       39.602203                        :Well Surface Location
XWELL .DEG       -79.976624                       :X-coordinate of Well Head
YWELL .DEG       39.602203                        :Y-coordinate of Well Head
PDAT  .          GL                               :Permanent Datum               
EPD   .ft        1058.00                          :Elevation of Permanent Datum (PDAT) above Mean Sea Level
LMF   .          KB                               :Logging Measured From (Name of Working Datum)
APD   .ft        22.50                            :Elevation of Working Datum (LMF) Above Permanent Datum
EKB   .ft        1080.50                          :Elevation of Kelly Bushing Above Mean Sea Level
EGL   .ft        1058.00                          :Elevation of Ground Level Above Mean Sea Level
EDF   .ft        1080.50                          :Elevation of Derrick Floor Above Mean Sea Level
~Curve Information Block
#MNEM.UNIT       API Code            Curve    Description
#--------        --------------      -----    -------------------
DEPT  .F                             :0       Index
BS    .IN                            :1       Bit Size                      
DTCO  .US/F                          :2       Delta-T Compressional         
DTSM_FAST.US/F                       :3       Shear Slowness of Fast Shear Waves
DTSM_SLOW.US/F                       :4       Shear Slowness of Slow Shear Waves
DTST  .US/F                          :5       Delta-T Stoneley - Monopole Stoneley
FLAG  .                              :6       General Indicator Flag        
FSH_AZIM_ERR.DEG                     :7       Fast shear azimuth error      
FSH_AZIM_FILTERED.DEG                :8       Filtered estimate of fast shear azimuth from pad1 azimuth
FSH_P1NO.DEG                         :9       Estimated fast shear azimuth from pad1 azimuth in plane orthogonal to tool axis
GR_EDTC.GAPI                         :10      Gamma Ray                     
HAZIM .DEG                           :11      Hole Azimuth                  
HD1_PPC1.IN                          :12      PPC1 Hole Diameter 1          
HD2_PPC1.IN                          :13      PPC1 Hole Diameter 2          
MAXXENE_OVERALL.                     :14      Overall estimate of maximum cross energy
MINXENE_OVERALL.                     :15      Overall estimate of minimum cross energy
P1NO_MAST.DEG                        :16      Pad 1 Azimuth in Plane Orthogonal to Tool Axis (0 = True North), memorized to MAST
PR    .                              :17      Poisson's Ratio               
RHOB  .G/C3                          :18      Bulk Density                  
SDEVM .DEG                           :19      Sonde Deviation               
SLOANI.                              :20      Slowness based anisotropy     
SPHI  .V/V                           :21      Sonic Porosity                
SVCO  .FT/S                          :22      Sonic Compressional Velocity  
SVSH  .FT/S                          :23      Sonic Shear Velocity          
TENS  .LBF                           :24      Cable Tension                 
TIMANI.                              :25      Time based anisotropy         
TWB   .US                            :26      Time window begin             
TWE   .US                            :27      Time window end               
VPVS  .                              :28      Compressional to Shear Velocity Ratio
~Ascii Data Section
# ...
   7180.00000       8.75000      82.54160     134.06404     134.38544     211.29681       0.00000      11.75999    -999.25000     122.68989     144.56052     276.43649       8.97747       9.05992       1.91982       0.84276     198.28761       0.19475       2.54482       4.88201       0.23945       0.24711   12115.10254    7459.12158    3100.89990       0.63370    2520.62207    4520.62207       1.62420 
   7180.50000       8.75000      82.13867     133.04192     133.13121     211.06577       0.00000      10.80867    -999.25000     121.93571     141.46060     276.42340       8.97774       9.06080       2.02769       0.82523     197.96716       0.19202       2.54750       4.89146       0.06710       0.24426   12174.53320    7516.42822    3146.71411       0.67578    2516.17920    4516.17920       1.61972 
   7181.00000       8.75000      81.00726     130.89143     130.89143     210.93335       0.00000      10.39495    -999.25000     121.18078     143.57721     276.45328       8.96560       9.05992       2.03373       0.80345     196.87665       0.18960       2.54092       4.89618       0.00000       0.23626   12344.57324    7639.91943    3134.95239       0.64907    2512.58081    4512.58105       1.61580 
   7181.50000       8.75000      79.32558     128.15100     128.15100     210.46448       0.00000      10.15144    -999.25000     119.27452     136.60478     276.47247       8.96560       9.05992       2.02189       0.77284     195.92531       0.18941       2.52814       4.90341       0.00000       0.22437   12606.27344    7803.29443    3056.09546       0.59920    2509.23828    4509.23828       1.61551 
   7182.00000       8.75000      77.62854     126.10870     126.10870     210.16957       0.00000       9.57568    -999.25000     116.97324     123.89017     276.48526       8.97975       9.05018       2.36312       0.76386     195.58565       0.19494       2.52085       4.90737       0.00000       0.21237   12881.86035    7929.66699    3163.44995       0.66350    2506.01074    4506.01074       1.62451 
   7182.50000       8.75000      76.67556     125.68592     125.68592     209.93727       0.00000       8.33182    -999.25000     115.91406     108.29745     276.51065       8.96560       9.05992       2.93255       0.78221     195.52333       0.20361       2.51354       4.91104       0.00000       0.20563   13041.96582    7956.34082    3181.09082       0.79749    2503.17676    4503.17676       1.63919 
   7183.00000       8.75000      76.62829     126.42417     126.58405     210.22247       0.00000       7.26612    -999.25000     115.75196      99.26817     276.52194       8.96560       9.07652       3.27832       0.82372     195.06592       0.20963       2.50602       4.91628       0.12638       0.20529   13050.01074    7909.87988    3069.50000       0.84418    2501.34058    4501.34082       1.64984 
   7183.50000       8.75000      77.18154     127.26108     127.53145     210.48796       0.00000       6.51818    -999.25000     115.77239     102.82461     276.54041       8.96789       9.06291       3.64934       0.84889     193.27737       0.20909       2.50681       4.91995       0.21223       0.20920   12956.46582    7857.86230    3118.80957       0.74815    2500.93335    4500.93359       1.64885 
   7184.00000       8.75000      78.23960     128.10802     128.52925     210.80299       0.00000       6.22060    -999.25000     115.18625     106.52815     276.60742       8.96560       9.07354       4.02720       0.89902     192.43004       0.20256       2.51656       4.92356       0.32827       0.21669   12781.25098    7805.91260    3040.00000       0.67275    2501.46631    4501.46631       1.63738 
   7184.50000       8.75000      79.42264     128.94598     129.55969     210.92894       0.00000       6.86047    -999.25000     114.82492     131.93744     276.65436       8.96560       9.04865       4.21241       1.04216     192.21613       0.19436       2.52541       4.92802       0.47481       0.22505   12590.86816    7755.18555    3018.84985       0.66137    2502.69727    4502.69727       1.62354 
   7185.00000       8.75000      80.66621     129.66737     130.39151     210.96638       0.00000       8.42345    -999.25000     114.12982     148.03720     276.69019       8.96560       9.05992       4.33634       1.38457     192.04997       0.18433       2.52871       4.93311       0.55690       0.23385   12396.76367    7712.04004    3077.71436       0.62917    2504.74072    4504.74072       1.60746 
   7185.50000       8.75000      81.56077     130.22424     130.57988     210.99362       0.00000      10.90275    -999.25000     111.61710     161.98232     276.73526       8.96560       9.05992       4.38775       1.87458     191.82584       0.17727       2.52841       4.93831       0.27272       0.24018   12260.79688    7679.06152    3166.95239       0.63031    2507.51465    4507.51465       1.59665 
   7186.00000       8.75000      82.12123     130.82562     130.82562     210.97958       0.00000      13.22496    -999.25000     109.54420     157.92627     276.79364       8.97774       9.04718       4.36383       2.19510     191.10616       0.17488       2.53527       4.94315       0.00000       0.24414   12177.11914    7643.76270    3147.60010       0.62823    2510.50000    4510.50000       1.59308 
   7186.50000       8.75000      82.28484     131.38010     131.38010     210.88736       0.00000      14.27882    -999.25000     109.11578     160.37544     276.86258       8.96560       9.04718       4.41930       2.33295     189.58495       0.17727       2.55170       4.94816       0.00000       0.24530   12152.90625    7611.50293    3108.66675       0.58719    2512.48169    4512.48145       1.59665 
   7187.00000       8.75000      82.15353     132.15303     132.15303     210.54861       0.00000      14.38298    -999.25000     108.73561     158.86026     276.94952       8.96560       9.07354       4.58881       2.41075     188.36870       0.18506       2.58126       4.95450       0.00000       0.24437   12172.33203    7566.98486    3144.57153       0.59253    2512.25659    4512.25684       1.60861 
   7187.50000       8.75000      81.66277     133.27220     133.27220     209.84196       0.00000      14.37678    -999.25000     107.58691     155.88371     277.03851       8.95576       9.07652       4.75980       2.41694     188.31525       0.19940       2.61945       4.95837       0.00000       0.24090   12245.48340    7503.44043    3167.00000       0.66154    2510.26978    4510.26953       1.63198 
   7188.00000       8.75000      81.23466     134.45158     134.48230     208.81105       0.00000      14.34226    -999.25000     105.34290     155.77814     277.13144       8.96560       9.07354       4.79036       2.35663     188.30505       0.21254       2.64285       4.96186       0.02284       0.23787   12310.01660    7437.62158    3047.42847       0.72187    2510.34497    4510.34473       1.65510 
   7188.50000       8.75000      81.39106     135.93433     136.40257     207.69797       0.00000      14.24390    -999.25000     102.50571     162.03307     277.26569       8.97774       9.10077       4.63432       2.25841     187.98990       0.22057       2.64077       4.96598       0.34387       0.23897   12286.36133    7356.49365    3027.90479       0.74686    2516.16113    4516.16113       1.67014 
   7189.00000       8.75000      82.16922     137.90892     138.48979     206.90598       0.00000      14.22362    -999.25000     100.68927     169.63300     277.36453       8.95576       9.10285       4.46315       2.16190     187.18964       0.22480       2.61547       4.97068       0.42031       0.24448   12170.00684    7251.16260    3200.25024       0.72753    2531.19971    4531.20020       1.67835 
   7189.50000       8.75000      83.36744     140.19824     140.58783     206.61389       0.00000      14.56524    -999.25000      99.18234     171.12125     277.43860       8.96560       9.08716       4.28302       2.04803     186.62631       0.22649       2.59381       4.97557       0.27750       0.25295   11995.09082    7132.75684    3295.04785       0.73562    2555.08740    4555.08789       1.68169 
