~Version Information
VERS  .          2.0                              :CWLS Log Ascii Standard - Version 2.0
WRAP  .          NO                               :One line per depth step
~Well Information Block
#MNEM.UNIT       Data Type                        Information
#---------       ---------                        -------------------------------
STRT  .F         6780.00000                       :START DEPTH
STOP  .F         7804.00000                       :STOP DEPTH
STEP  .F          0.50000                         :INCREMENT 
NULL  .          -999.25                          :NULL DATA VALUE
COMP  .          NORTHEAST NATURAL ENERGY         :COMPANY
WELL  .          MIP_3H                           :WELL
FLD   .          MONONGALIA                       :FIELD
LOC   .          LONG  .DEG       -79.976624      :LOCATION
LOC1  .          LATI  .DEG       39.602203       :LOCATION
STAT  .          WEST VIRGINIA                    :STATE
CNTY  .          MONONGALIA                       :COUNTY
CTRY  .          USA                              :COUNTRY
DATE  .          05-SEP-2015                      :DATE
UWI   .          47-061-01707-00-00               :UNIQUE WELL UWI
API   .          47-061-01707-00-00               :API NUMBER
SRVC  .          SLB                              :SERVICE COMPANY
~Parameter Information Block
#MNEM.UNIT       Value                            Description
#---------       ---------                        -------------
LONG  .DEG       -79.976624                       :Well Surface Location
LATI  .DEG       39.602203                        :Well Surface Location
XWELL .DEG       -79.976624                       :X-coordinate of Well Head
YWELL .DEG       39.602203                        :Y-coordinate of Well Head
PDAT  .          GL                               :Permanent Datum               
EPD   .ft        1058.00                          :Elevation of Permanent Datum (PDAT) above Mean Sea Level
LMF   .          KB                               :Logging Measured From (Name of Working Datum)
APD   .ft        22.50                            :Elevation of Working Datum (LMF) Above Permanent Datum
EKB   .ft        1080.50                          :Elevation of Kelly Bushing Above Mean Sea Level
EGL   .ft        1058.00                          :Elevation of Ground Level Above Mean Sea Level
EDF   .ft        1080.50                          :Elevation of Derrick Floor Above Mean Sea Level
~Curve Information Block
#MNEM.UNIT       API Code            Curve    Description
#--------        --------------      -----    -------------------
DEPT  .F                             :0       Index
BS    .IN                            :1       Bit Size                      
DTCO  .US/F                          :2       Delta-T Compressional         
DTSM_FAST.US/F                       :3       Shear Slowness of Fast Shear Waves
DTSM_SLOW.US/F                       :4       Shear Slowness of Slow Shear Waves
DTST  .US/F                          :5       Delta-T Stoneley - Monopole Stoneley
FLAG  .                              :6       General Indicator Flag        
FSH_AZIM_ERR.DEG                     :7       Fast shear azimuth error      
FSH_AZIM_FILTERED.DEG                :8       Filtered estimate of fast shear azimuth from pad1 azimuth
FSH_P1NO.DEG                         :9       Estimated fast shear azimuth from pad1 azimuth in plane orthogonal to tool axis
GR_EDTC.GAPI                         :10      Gamma Ray                     
HAZIM .DEG                           :11      Hole Azimuth                  
HD1_PPC1.IN                          :12      PPC1 Hole Diameter 1          
HD2_PPC1.IN                          :13      PPC1 Hole Diameter 2          
MAXXENE_OVERALL.                     :14      Overall estimate of maximum cross energy
MINXENE_OVERALL.                     :15      Overall estimate of minimum cross energy
P1NO_MAST.DEG                        :16      Pad 1 Azimuth in Plane Orthogonal to Tool Axis (0 = True North), memorized to MAST
PR    .                              :17      Poisson's Ratio               
RHOB  .G/C3                          :18      Bulk Density                  
SDEVM .DEG                           :19      Sonde Deviation               
SLOANI.                              :20      Slowness based anisotropy     
SPHI  .V/V                           :21      Sonic Porosity                
SVCO  .FT/S                          :22      Sonic Compressional Velocity  
SVSH  .FT/S                          :23      Sonic Shear Velocity          
TENS  .LBF                           :24      Cable Tension                 
TIMANI.                              :25      Time based anisotropy         
TWB   .US                            :26      Time window begin             
TWE   .US                            :27      Time window end               
VPVS  .                              :28      Compressional to Shear Velocity Ratio
~Ascii Data Section
# ...
   7250.00000       8.75000      66.59005     118.79434     118.99078     205.30206       0.00000       6.36097    -999.25000      26.60972      93.99225     280.30328       8.97690       9.03266       2.72488       1.03432     114.23878       0.27091       2.70329       5.30752       0.16523       0.13430   15017.25879    8417.90918    3143.28589       0.09441    2292.31274    4292.31250       1.78397 
   7250.50000       8.75000      66.25220     118.05720     118.25364     204.98543       0.00000       6.25236    -999.25000      26.55866      92.09180     280.32428       8.96504       9.04629       2.72547       1.02084     114.14774       0.27015       2.71460       5.30137       0.16626       0.13191   15093.83887    8470.47070    3175.19043       0.14539    2295.21265    4295.21289       1.78194 
   7251.00000       8.75000      65.98100     117.19395     117.19395     204.59738       0.00000       6.16714    -999.25000      26.33059      85.93422     280.35886       8.96504       9.03266       2.76719       1.02201     114.30946       0.26796       2.72389       5.29633       0.00000       0.12999   15155.87891    8532.86328    3241.09106       0.13763    2298.16260    4298.16260       1.77618 
   7251.50000       8.75000      65.82848     116.36304     116.36304     204.61809       0.00000       6.23088    -999.25000      26.14825      90.27804     280.37662       8.97769       9.02205       2.76602       1.02352     114.09754       0.26467       2.72345       5.29140       0.00000       0.12891   15190.99414    8593.79395    3110.95239       0.12811    2300.69849    4300.69824       1.76767 
   7252.00000       8.75000      65.76902     116.51144     116.66720     204.74507       0.00000       6.67006    -999.25000      26.82936      87.22100     280.39087       8.96504       9.03266       3.04025       1.37395     114.08245       0.26617       2.71656       5.28636       0.13360       0.12849   15204.72754    8582.84863    3017.52393       0.20812    2302.73267    4302.73242       1.77152 
   7252.50000       8.75000      65.71803     116.71209     116.85574     204.88171       0.00000       6.96711    -999.25000      27.64697      88.39225     280.40207       8.97719       9.00628       3.31071       1.72363     113.98656       0.26787       2.71449       5.28142       0.12300       0.12813   15216.52539    8568.09277    3189.42847       0.31235    2304.40942    4304.40918       1.77595 
   7253.00000       8.75000      65.42088     116.84785     116.88000     204.93456       0.00000       6.52602    -999.25000      27.70771      82.05256     280.41101       8.96504       9.01992       3.17830       1.61047     113.96359       0.27170       2.72639       5.27649       0.02752       0.12603   15285.64062    8558.13770    3220.40918       0.34484    2306.04834    4306.04834       1.78609 
   7253.50000       8.75000      65.04472     116.40010     116.40010     205.21408       0.00000       6.19967    -999.25000      27.43936      81.49651     280.42651       8.96627       9.01992       3.06602       1.50715     114.05672       0.27298       2.73922       5.27047       0.00000       0.12337   15374.03711    8591.05762    3184.47632       0.32533    2308.33105    4308.33105       1.78954 
   7254.00000       8.75000      64.76770     116.26509     116.26509     205.59534       0.00000       6.16763    -999.25000      27.35402      83.36707     280.43811       8.97690       9.04629       3.05716       1.50769     114.14077       0.27502       2.73902       5.26458       0.00000       0.12141   15439.79492    8601.03418    3084.19067       0.31888    2311.00928    4311.00879       1.79511 
   7254.50000       8.75000      64.79192     116.27322     116.27322     205.85300       0.00000       6.22256    -999.25000      27.61777      87.87561     280.45587       8.97690       9.03266       3.05042       1.50532     114.06548       0.27482       2.72800       5.25639       0.00000       0.12158   15434.02246    8600.43262    3161.71436       0.34809    2313.85498    4313.85498       1.79456 
   7255.00000       8.75000      65.10046     116.43314     116.43314     205.64999       0.00000       6.71623    -999.25000      27.76297      88.71977     280.47513       8.97690       9.01992       2.99992       1.51575     113.92046       0.27260       2.71602       5.24744       0.00000       0.12377   15360.87402    8588.62012    3152.77295       0.33726    2316.73804    4316.73828       1.78851 
   7255.50000       8.75000      65.54926     116.65434     117.16927     205.33977       0.00000       7.22512    -999.25000      27.93652      86.66527     280.49780       8.97690       9.01992       2.92011       1.52954     113.98753       0.26928       2.71063       5.23948       0.44045       0.12694   15255.70312    8572.33496    3178.28589       0.31647    2319.40845    4319.40820       1.77964 
   7256.00000       8.75000      66.00737     117.66927     118.05233     205.18466       0.00000       7.34342    -999.25000      28.34198      82.65489     280.51736       8.98875       9.00628       2.87828       1.52611     114.37889       0.27042       2.70977       5.22901       0.32501       0.13018   15149.82324    8498.39551    3239.50000       0.35034    2321.85181    4321.85156       1.78267 
   7256.50000       8.75000      66.41794     118.92429     119.17096     205.21687       0.00000       7.22649    -999.25000      28.78922      83.53694     280.54678       8.97690       9.00628       2.88429       1.52484     114.43438       0.27335       2.70814       5.22109       0.20720       0.13308   15056.17383    8408.71094    3216.23804       0.39604    2324.18896    4324.18848       1.79054 
   7257.00000       8.75000      66.81116     119.69287     120.06660     205.26138       0.00000       6.75972    -999.25000      28.18664      88.84273     280.55951       8.97891       9.02295       2.60562       1.21919     114.47721       0.27371       2.70115       5.21292       0.31175       0.13586   14967.55859    8354.71680    3124.47632       0.35438    2326.72949    4326.72949       1.79151 
   7257.50000       8.75000      67.59311     120.34084     121.12751     205.26457       0.00000       6.32756    -999.25000      27.24237      90.38512     280.57098       8.97690       9.03355       2.28268       0.84403     115.55192       0.26956       2.69257       5.20603       0.65157       0.14139   14794.40723    8309.73047    3039.90918       0.28517    2329.74316    4329.74316       1.78037 
   7258.00000       8.75000      68.32742     121.18314     121.72182     205.27278       0.00000       6.20349    -999.25000      27.08723      91.59245     280.58325       8.97690       9.02141       2.25857       0.77798     116.53630       0.26696       2.68753       5.19989       0.44353       0.14659   14635.41211    8251.97266    3178.66675       0.27196    2333.25488    4333.25488       1.77357 
   7258.50000       8.75000      68.80542     121.93173     122.56412     205.27998       0.00000       6.11516    -999.25000      27.07460      88.84189     280.59094       8.99104       9.02295       2.28932       0.77704     116.90555       0.26640       2.68782       5.19377       0.51730       0.14997   14533.73926    8201.31055    3281.27271       0.28207    2337.14014    4337.14014       1.77212 
   7259.00000       8.75000      69.02946     122.42455     122.73226     205.26663       0.00000       6.19013    -999.25000      26.93567      89.35561     280.59610       8.98875       9.03355       2.33591       0.78991     116.92567       0.26694       2.69329       5.18559       0.25103       0.15155   14486.56738    8168.29590    3291.33325       0.28921    2341.14258    4341.14258       1.77351 
   7259.50000       8.75000      69.29095     122.73862     122.82797     205.29968       0.00000       6.46803    -999.25000      26.56435      90.72657     280.60254       8.97690       9.00628       2.39168       0.81846     116.87406       0.26610       2.70330       5.17693       0.07277       0.15340   14431.89844    8147.39502    3164.18188       0.26962    2345.00879    4345.00879       1.77135 
