~Version Information
VERS  .          2.0                              :CWLS Log Ascii Standard - Version 2.0
WRAP  .          NO                               :One line per depth step
~Well Information Block
#MNEM.UNIT       Data Type                        Information
#---------       ---------                        -------------------------------
STRT  .F         6780.00000                       :START DEPTH
STOP  .F         7804.00000                       :STOP DEPTH
STEP  .F          0.50000                         :INCREMENT 
NULL  .          -999.25                          :NULL DATA VALUE
COMP  .          NORTHEAST NATURAL ENERGY         :COMPANY
WELL  .          MIP_3H                           :WELL
FLD   .          MONONGALIA                       :FIELD
LOC   .          LONG  .DEG       -79.976624      :LOCATION
LOC1  .          LATI  .DEG       39.602203       :LOCATION
STAT  .          WEST VIRGINIA                    :STATE
CNTY  .          MONONGALIA                       :COUNTY
CTRY  .          USA                              :COUNTRY
DATE  .          05-SEP-2015                      :DATE
UWI   .          47-061-01707-00-00               :UNIQUE WELL UWI
API   .          47-061-01707-00-00               :API NUMBER
SRVC  .          SLB                              :SERVICE COMPANY
~Parameter Information Block
#MNEM.UNIT       Value                            Description
#---------       ---------                        -------------
LONG  .DEG       -79.976624                       :Well Surface Location
LATI  .DEG       39.602203                        :Well Surface Location
XWELL .DEG       -79.976624                       :X-coordinate of Well Head
YWELL .DEG       39.602203                        :Y-coordinate of Well Head
PDAT  .          GL                               :Permanent Datum               
EPD   .ft        1058.00                          :Elevation of Permanent Datum (PDAT) above Mean Sea Level
LMF   .          KB                               :Logging Measured From (Name of Working Datum)
APD   .ft        22.50                            :Elevation of Working Datum (LMF) Above Permanent Datum
EKB   .ft        1080.50                          :Elevation of Kelly Bushing Above Mean Sea Level
EGL   .ft        1058.00                          :Elevation of Ground Level Above Mean Sea Level
EDF   .ft        1080.50                          :Elevation of Derrick Floor Above Mean Sea Level
~Curve Information Block
#MNEM.UNIT       API Code            Curve    Description
#--------        --------------      -----    -------------------
DEPT  .F                             :0       Index
BS    .IN                            :1       Bit Size                      
DTCO  .US/F                          :2       Delta-T Compressional         
DTSM_FAST.US/F                       :3       Shear Slowness of Fast Shear Waves
DTSM_SLOW.US/F                       :4       Shear Slowness of Slow Shear Waves
DTST  .US/F                          :5       Delta-T Stoneley - Monopole Stoneley
FLAG  .                              :6       General Indicator Flag        
FSH_AZIM_ERR.DEG                     :7       Fast shear azimuth error      
FSH_AZIM_FILTERED.DEG                :8       Filtered estimate of fast shear azimuth from pad1 azimuth
FSH_P1NO.DEG                         :9       Estimated fast shear azimuth from pad1 azimuth in plane orthogonal to tool axis
GR_EDTC.GAPI                         :10      Gamma Ray                     
HAZIM .DEG                           :11      Hole Azimuth                  
HD1_PPC1.IN                          :12      PPC1 Hole Diameter 1          
HD2_PPC1.IN                          :13      PPC1 Hole Diameter 2          
MAXXENE_OVERALL.                     :14      Overall estimate of maximum cross energy
MINXENE_OVERALL.                     :15      Overall estimate of minimum cross energy
P1NO_MAST.DEG                        :16      Pad 1 Azimuth in Plane Orthogonal to Tool Axis (0 = True North), memorized to MAST
PR    .                              :17      Poisson's Ratio               
RHOB  .G/C3                          :18      Bulk Density                  
SDEVM .DEG                           :19      Sonde Deviation               
SLOANI.                              :20      Slowness based anisotropy     
SPHI  .V/V                           :21      Sonic Porosity                
SVCO  .FT/S                          :22      Sonic Compressional Velocity  
SVSH  .FT/S                          :23      Sonic Shear Velocity          
TENS  .LBF                           :24      Cable Tension                 
TIMANI.                              :25      Time based anisotropy         
TWB   .US                            :26      Time window begin             
TWE   .US                            :27      Time window end               
VPVS  .                              :28      Compressional to Shear Velocity Ratio
~Ascii Data Section
# ...
   7520.00000       8.75000      94.67515     153.04247     153.92949     213.92471       0.00000       4.55494    -999.25000      90.59436     188.85399     262.66287       8.95346       9.00628       3.21885       0.64094     164.47351       0.19003       2.49849       1.42634       0.57792       0.33292   10562.43359    6534.13428    3035.34766       1.03790    2622.08643    4622.08643       1.61650 
   7520.50000       8.75000      90.28189     144.42439     144.42439     212.82211       0.00000       4.99388    -999.25000      90.29562     159.95087     262.72784       8.94159       9.01992       2.94453       0.65512     163.80615       0.17929       2.51925       1.42654       0.00000       0.30185   11076.41797    6924.03809    3074.90918       0.97062    2618.76782    4618.76758       1.59970 
   7521.00000       8.75000      84.03183     136.76257     136.76257     211.69965       0.00000       5.71550    -999.25000      90.17477     124.18467     262.75046       8.94159       9.02080       2.92063       0.69234     162.82205       0.19675       2.55980       1.42589       0.00000       0.25765   11900.25293    7311.94189    3134.08691       0.93621    2615.72021    4615.72021       1.62751 
   7521.50000       8.75000      78.41419     132.70792     132.70792     210.84984       0.00000       6.72007    -999.25000      90.09778     102.67899     262.77734       8.92944       9.02080       2.93864       0.72942     160.81772       0.23179       2.60181       1.42603       0.00000       0.21792   12752.79395    7535.34570    3090.17383       0.91665    2612.93091    4612.93066       1.69240 
   7522.00000       8.75000      76.06019     132.44060     132.44060     210.56339       0.00000       7.92888    -999.25000      90.08608     105.05220     262.77173       8.94159       8.99353       2.98603       0.78513     160.20457       0.25394       2.60482       1.42621       0.00000       0.20127   13147.48242    7550.55469    3079.43481       0.89528    2609.79102    4609.79102       1.74126 
   7522.50000       8.75000      78.31496     134.16280     134.42871     210.89966       0.00000       8.99233    -999.25000      90.62546     132.07106     262.69983       8.95373       8.99353       3.00073       0.85918     160.16119       0.24157       2.59146       1.42637       0.19801       0.21722   12768.95215    7453.63135    3092.95459       0.87148    2607.10547    4607.10547       1.71312 
   7523.00000       8.75000      81.92241     136.71626     137.03876     211.63882       0.00000       9.60666    -999.25000      91.49196     164.78311     262.70447       8.94159       9.00717       3.03745       0.93206     159.44598       0.21990       2.58450       1.42614       0.23561       0.24273   12206.67188    7314.41895    3064.60864       0.87129    2608.70410    4608.70410       1.66885 
   7523.50000       8.75000      84.67640     139.16573     139.22192     212.44165       0.00000      10.22356    -999.25000      91.67654     187.25259     262.71399       8.94159       9.00628       3.02033       1.00924     157.22627       0.20607       2.59164       1.42642       0.04037       0.26221   11809.66602    7185.67725    3096.95459       0.85495    2614.97510    4614.97510       1.64350 
   7524.00000       8.75000      85.95248     139.90424     139.90424     213.01520       0.00000      10.98163    -999.25000      91.34936     197.63499     262.69461       8.94159       9.01992       2.93962       1.07482     156.32516       0.19686       2.56594       1.42657       0.00000       0.27123   11634.33594    7147.74658    3079.78271       0.82604    2621.44189    4621.44189       1.62769 
   7524.50000       8.75000      86.18550     140.06737     140.06737     213.21339       0.00000      12.01964    -999.25000      91.48862     203.87541     262.66794       8.95346       8.99353       2.82871       1.13490     156.26653       0.19535       2.52911       1.42644       0.00000       0.27288   11602.87988    7139.42188    3100.95459       0.80383    2624.56689    4624.56689       1.62518 
   7525.00000       8.75000      86.22383     139.98840     139.98840     213.14630       0.00000      13.06656    -999.25000      92.54596     213.09550     262.71329       8.94159       9.01992       2.59222       1.20703     155.90865       0.19436       2.50033       1.42675       0.00000       0.27315   11597.72168    7143.44873    3085.43481       0.77672    2622.54736    4622.54736       1.62355 
   7525.50000       8.75000      86.34363     140.61703     140.99631     213.02316       0.00000      13.95964    -999.25000      92.52150     227.49489     262.72549       8.94159       8.99353       2.45783       1.28352     154.87675       0.19738       2.51117       1.42689       0.26936       0.27400   11581.63086    7111.51367    3039.47827       0.75511    2616.17700    4616.17725       1.62857 
   7526.00000       8.75000      86.42606     140.84242     142.29242     212.90758       0.00000      14.72928    -999.25000      90.46684     227.93636     262.74988       8.94159       9.00717       2.49085       1.33410     154.16534       0.19801       2.54668       1.42717       1.02424       0.27458   11570.58398    7100.13330    3148.81836       0.73845    2606.73975    4606.74023       1.62963 
   7526.50000       8.75000      85.85627     140.34180     142.20862     212.74797       0.00000      14.70703    -999.25000      88.32541     225.06844     262.75659       8.92944       9.00628       2.50614       1.34087     153.04912       0.20095       2.61925       1.42754       1.32141       0.27055   11647.37305    7125.46094    3101.27271       0.72465    2594.19507    4594.19531       1.63461 
   7527.00000       8.75000      84.66849     138.57693     139.64351     212.39816       0.00000      14.48765    -999.25000      86.70248     204.51343     262.78421       8.94159       8.99353       2.43686       1.34065     150.52341       0.20217       2.71729       1.42776       0.76671       0.26215   11810.76953    7216.20801    3097.13037       0.69464    2580.39111    4580.39111       1.63670 
   7527.50000       8.75000      83.02853     136.31187     136.31187     211.89490       0.00000      14.77227    -999.25000      84.06459     189.48380     262.85220       8.94159       8.99353       2.35161       1.34102     149.95500       0.20507       2.78820       1.42636       0.00000       0.25056   12044.05371    7336.11816    3218.60864       0.61230    2568.77393    4568.77393       1.64175 
   7528.00000       8.75000      81.52559     133.57788     133.81403     211.26720       0.00000      14.84749    -999.25000      80.62695     173.47885     262.77750       8.94159       9.00628       2.31877       1.29886     149.82584       0.20320       2.81365       1.42643       0.17663       0.23993   12266.08691    7486.26953    3214.95459       0.51341    2562.01172    4562.01172       1.63848 
   7528.50000       8.75000      80.10016     130.59773     131.74873     210.76332       0.00000      14.47067    -999.25000      78.45686     168.54120     262.73608       8.95373       9.00628       2.30763       1.22236     149.09444       0.19849       2.79259       1.42559       0.87747       0.22985   12484.37012    7657.10059    3151.56519       0.46453    2560.70068    4560.70068       1.63043 
   7529.00000       8.75000      79.37968     128.59323     129.74425     210.36852       0.00000      14.34286    -999.25000      77.23927     169.89584     262.71609       8.92944       9.00628       2.27015       1.14790     148.26781       0.19218       2.74594       1.42535       0.89110       0.22475   12597.68262    7776.45898    3146.30444       0.43182    2563.44189    4563.44189       1.61998 
   7529.50000       8.75000      79.36650     127.15813     128.07301     210.21069       0.00000      13.83987    -999.25000      75.84238     179.07558     262.69501       8.92944       9.00717       2.31233       1.08563     147.44716       0.18090       2.67449       1.42448       0.71690       0.22466   12599.77441    7864.22363    3081.60864       0.43127    2568.54688    4568.54688       1.60216 
