~Version Information
VERS  .          2.0                              :CWLS Log Ascii Standard - Version 2.0
WRAP  .          NO                               :One line per depth step
~Well Information Block
#MNEM.UNIT       Data Type                        Information
#---------       ---------                        -------------------------------
STRT  .F         6780.00000                       :START DEPTH
STOP  .F         7804.00000                       :STOP DEPTH
STEP  .F          0.50000                         :INCREMENT 
NULL  .          -999.25                          :NULL DATA VALUE
COMP  .          NORTHEAST NATURAL ENERGY         :COMPANY
WELL  .          MIP_3H                           :WELL
FLD   .          MONONGALIA                       :FIELD
LOC   .          LONG  .DEG       -79.976624      :LOCATION
LOC1  .          LATI  .DEG       39.602203       :LOCATION
STAT  .          WEST VIRGINIA                    :STATE
CNTY  .          MONONGALIA                       :COUNTY
CTRY  .          USA                              :COUNTRY
DATE  .          05-SEP-2015                      :DATE
UWI   .          47-061-01707-00-00               :UNIQUE WELL UWI
API   .          47-061-01707-00-00               :API NUMBER
SRVC  .          SLB                              :SERVICE COMPANY
~Parameter Information Block
#MNEM.UNIT       Value                            Description
#---------       ---------                        -------------
LONG  .DEG       -79.976624                       :Well Surface Location
LATI  .DEG       39.602203                        :Well Surface Location
XWELL .DEG       -79.976624                       :X-coordinate of Well Head
YWELL .DEG       39.602203                        :Y-coordinate of Well Head
PDAT  .          GL                               :Permanent Datum               
EPD   .ft        1058.00                          :Elevation of Permanent Datum (PDAT) above Mean Sea Level
LMF   .          KB                               :Logging Measured From (Name of Working Datum)
APD   .ft        22.50                            :Elevation of Working Datum (LMF) Above Permanent Datum
EKB   .ft        1080.50                          :Elevation of Kelly Bushing Above Mean Sea Level
EGL   .ft        1058.00                          :Elevation of Ground Level Above Mean Sea Level
EDF   .ft        1080.50                          :Elevation of Derrick Floor Above Mean Sea Level
~Curve Information Block
#MNEM.UNIT       API Code            Curve    Description
#--------        --------------      -----    -------------------
DEPT  .F                             :0       Index
BS    .IN                            :1       Bit Size                      
DTCO  .US/F                          :2       Delta-T Compressional         
DTSM_FAST.US/F                       :3       Shear Slowness of Fast Shear Waves
DTSM_SLOW.US/F                       :4       Shear Slowness of Slow Shear Waves
DTST  .US/F                          :5       Delta-T Stoneley - Monopole Stoneley
FLAG  .                              :6       General Indicator Flag        
FSH_AZIM_ERR.DEG                     :7       Fast shear azimuth error      
FSH_AZIM_FILTERED.DEG                :8       Filtered estimate of fast shear azimuth from pad1 azimuth
FSH_P1NO.DEG                         :9       Estimated fast shear azimuth from pad1 azimuth in plane orthogonal to tool axis
GR_EDTC.GAPI                         :10      Gamma Ray                     
HAZIM .DEG                           :11      Hole Azimuth                  
HD1_PPC1.IN                          :12      PPC1 Hole Diameter 1          
HD2_PPC1.IN                          :13      PPC1 Hole Diameter 2          
MAXXENE_OVERALL.                     :14      Overall estimate of maximum cross energy
MINXENE_OVERALL.                     :15      Overall estimate of minimum cross energy
P1NO_MAST.DEG                        :16      Pad 1 Azimuth in Plane Orthogonal to Tool Axis (0 = True North), memorized to MAST
PR    .                              :17      Poisson's Ratio               
RHOB  .G/C3                          :18      Bulk Density                  
SDEVM .DEG                           :19      Sonde Deviation               
SLOANI.                              :20      Slowness based anisotropy     
SPHI  .V/V                           :21      Sonic Porosity                
SVCO  .FT/S                          :22      Sonic Compressional Velocity  
SVSH  .FT/S                          :23      Sonic Shear Velocity          
TENS  .LBF                           :24      Cable Tension                 
TIMANI.                              :25      Time based anisotropy         
TWB   .US                            :26      Time window begin             
TWE   .US                            :27      Time window end               
VPVS  .                              :28      Compressional to Shear Velocity Ratio
~Ascii Data Section
# ...
   6850.00000       8.75000      69.89821     128.38187     129.56502     205.06241       0.00000       9.10044    -999.25000      94.52670     117.22759     291.50330       9.17128       9.22072       2.67970       1.16156     262.68484       0.28934       2.78473       1.10727       0.91736       0.15770   14306.51855    7789.26221    3041.14282       0.22852    2461.98730    4461.98730       1.83670 
   6850.50000       8.75000      69.96173     128.83250     129.64029     205.25890       0.00000       8.69449    -999.25000      94.02409     121.97161     291.42825       9.18128       9.21789       2.69063       1.14612     262.35022       0.29088       2.75750       1.10733       0.62504       0.15815   14293.52832    7762.01611    3090.09521       0.25095    2460.05151    4460.05176       1.84147 
   6851.00000       8.75000      70.28711     129.17389     129.58011     205.46495       0.00000       8.24382    -999.25000      93.70059     123.62089     291.41217       9.24268       9.26055       2.67208       1.08102     262.15533       0.28970       2.73142       1.10731       0.31398       0.16045   14227.36035    7741.50244    3089.52393       0.26112    2457.93823    4457.93848       1.83780 
   6851.50000       8.75000      71.16303     129.40082     129.50314     206.04694       0.00000       8.24401    -999.25000      93.52211     131.25510     291.37177       9.21702       9.21789       2.61979       1.01527     262.15189       0.28322       2.71858       1.10981       0.07905       0.16664   14052.24023    7727.92627    3036.14990       0.25805    2455.79297    4455.79297       1.81837 
   6852.00000       8.75000      72.56277     129.50259     129.50259     206.85249       0.00000       8.80525    -999.25000      93.36288     139.76929     291.39072       9.19491       9.20714       2.54480       0.98848     262.07227       0.27118       2.71514       1.11421       0.00000       0.17654   13781.17090    7721.85303    2932.66675       0.24608    2453.60156    4453.60156       1.78470 
   6852.50000       8.75000      74.01949     129.56657     129.97426     207.35828       0.00000       9.35600    -999.25000      93.23892     149.57288     291.46902       9.26509       9.19159       2.44381       0.94543     261.91653       0.25776       2.72087       1.12050       0.31416       0.18684   13509.95605    7718.04004    2975.90479       0.22120    2451.08716    4451.08691       1.75044 
   6853.00000       8.75000      74.60047     130.14316     130.29225     207.42163       0.00000      10.13880    -999.25000      93.15869     149.34761     291.51331       9.18128       9.19159       2.34231       0.94401     260.43576       0.25531       2.73695       1.12733       0.11450       0.19095   13404.74121    7683.84619    3225.09521       0.20537    2448.58154    4448.58105       1.74454 
   6853.50000       8.75000      73.95611     130.18793     130.18793     207.00471       0.00000      11.16210    -999.25000      93.12479     141.90436     291.73871       9.23088       9.24609       2.24159       0.97801     260.11743       0.26177       2.75556       1.13942       0.00000       0.18639   13521.53320    7681.20361    3156.61890       0.20747    2445.82227    4445.82227       1.76034 
   6854.00000       8.75000      72.40883     129.28836     129.28836     206.51820       0.00000      11.94803    -999.25000      93.34894     133.37747     292.03101       9.23088       9.23251       2.11521       0.97351     260.05069       0.27149       2.75799       1.15451       0.00000       0.17545   13810.47070    7734.64844    3066.38110       0.20371    2442.91455    4442.91455       1.78553 
   6854.50000       8.75000      70.81726     127.71981     127.96980     205.81651       0.00000      12.57703    -999.25000      93.45868     125.54119     292.15704       9.16945       9.21789       2.01540       0.95928     259.87015       0.27804       2.74281       1.16434       0.19554       0.16420   14120.85156    7829.63916    3045.29980       0.18498    2440.68945    4440.68945       1.80351 
   6855.00000       8.75000      69.63166     126.23186     126.78169     205.14642       0.00000      13.24784    -999.25000      93.28836     121.62461     292.14227       9.14641       9.23059       1.92976       0.95061     257.97607       0.28132       2.72422       1.17160       0.43462       0.15581   14361.28320    7921.93018    3100.23804       0.16728    2440.22656    4440.22656       1.81285 
   6855.50000       8.75000      68.96960     124.94006     125.86525     204.55261       0.00000      13.78346    -999.25000      93.23708     116.65211     292.06189       9.15892       9.24698       1.86231       0.94310     255.50833       0.28086       2.71214       1.17322       0.73777       0.15113   14499.14062    8003.83789    3127.57153       0.17095    2441.46655    4441.46680       1.81152 
   6856.00000       8.75000      68.66897     124.22732     125.12618     204.36385       0.00000      14.10147    -999.25000      93.34206     112.63324     291.91248       9.14710       9.24698       1.85330       0.95520     255.14041       0.28000       2.72537       1.16995       0.72096       0.14900   14562.61914    8049.75928    3078.59985       0.19300    2441.24829    4441.24854       1.80908 
   6856.50000       8.75000      68.65958     123.64570     124.91766     204.47127       0.00000      14.55750    -999.25000      93.51329     111.80395     291.75052       9.25448       9.30034       1.82368       0.97833     255.10504       0.27709       2.75186       1.16568       1.02345       0.14894   14564.60938    8087.62451    2969.76196       0.20089    2438.81665    4438.81641       1.80085 
   6857.00000       8.75000      68.73741     123.26861     124.71893     204.81514       0.00000      14.97836    -999.25000      93.50937     114.65154     291.65933       9.11108       9.15546       1.78885       0.99071     254.78017       0.27437       2.76637       1.15808       1.16968       0.14949   14548.11816    8112.36523    2937.90015       0.19898    2436.77686    4436.77637       1.79333 
   6857.50000       8.75000      68.76540     122.70544     124.80804     205.01607       0.00000      15.09950    -999.25000      93.17081     121.52892     291.62604       9.13528       9.16904       1.79095       0.99860     252.55722       0.27107       2.75599       1.14707       1.69898       0.14968   14542.19824    8149.59766    3172.71436       0.21774    2435.68115    4435.68066       1.78441 
   6858.00000       8.75000      68.71294     122.44526     124.67802     204.78780       0.00000      15.04420    -999.25000      92.30412     123.26441     291.62573       9.14595       9.23341       1.79163       0.98992     250.20259       0.27016       2.73622       1.13705       1.80700       0.14931   14553.30078    8166.91504    3271.61914       0.24213    2434.29346    4434.29297       1.78198 
   6858.50000       8.75000      68.60320     122.75189     124.72404     204.39105       0.00000      15.07485    -999.25000      91.01781     124.65613     291.63510       9.09978       9.17799       1.77581       0.97470     249.10117       0.27289       2.71886       1.12815       1.59381       0.14854   14576.57910    8146.51416    3143.71436       0.25118    2432.33008    4432.33008       1.78930 
   6859.00000       8.75000      68.52724     123.54942     124.78150     204.25012       0.00000      15.53594    -999.25000      89.68128     119.36887     291.66714       9.33863       9.12647       1.75017       0.99524     249.00162       0.27783       2.70340       1.12041       0.99229       0.14800   14592.73730    8093.92725    3054.05005       0.24036    2430.20850    4430.20850       1.80292 
   6859.50000       8.75000      68.56606     124.50925     125.15372     204.38957       0.00000      16.33638    -999.25000      88.17526     120.38116     291.78271       9.46922       9.25786       1.74453       1.06398     248.97371       0.28237       2.69253       1.11498       0.51627       0.14827   14584.47461    8031.53223    3004.90479       0.21878    2428.28516    4428.28516       1.81590 
