~Version Information
VERS  .          2.0                              :CWLS Log Ascii Standard - Version 2.0
WRAP  .          NO                               :One line per depth step
~Well Information Block
#MNEM.UNIT       Data Type                        Information
#---------       ---------                        -------------------------------
STRT  .F         6780.00000                       :START DEPTH
STOP  .F         7804.00000                       :STOP DEPTH
STEP  .F          0.50000                         :INCREMENT 
NULL  .          -999.25                          :NULL DATA VALUE
COMP  .          NORTHEAST NATURAL ENERGY         :COMPANY
WELL  .          MIP_3H                           :WELL
FLD   .          MONONGALIA                       :FIELD
LOC   .          LONG  .DEG       -79.976624      :LOCATION
LOC1  .          LATI  .DEG       39.602203       :LOCATION
STAT  .          WEST VIRGINIA                    :STATE
CNTY  .          MONONGALIA                       :COUNTY
CTRY  .          USA                              :COUNTRY
DATE  .          05-SEP-2015                      :DATE
UWI   .          47-061-01707-00-00               :UNIQUE WELL UWI
API   .          47-061-01707-00-00               :API NUMBER
SRVC  .          SLB                              :SERVICE COMPANY
~Parameter Information Block
#MNEM.UNIT       Value                            Description
#---------       ---------                        -------------
LONG  .DEG       -79.976624                       :Well Surface Location
LATI  .DEG       39.602203                        :Well Surface Location
XWELL .DEG       -79.976624                       :X-coordinate of Well Head
YWELL .DEG       39.602203                        :Y-coordinate of Well Head
PDAT  .          GL                               :Permanent Datum               
EPD   .ft        1058.00                          :Elevation of Permanent Datum (PDAT) above Mean Sea Level
LMF   .          KB                               :Logging Measured From (Name of Working Datum)
APD   .ft        22.50                            :Elevation of Working Datum (LMF) Above Permanent Datum
EKB   .ft        1080.50                          :Elevation of Kelly Bushing Above Mean Sea Level
EGL   .ft        1058.00                          :Elevation of Ground Level Above Mean Sea Level
EDF   .ft        1080.50                          :Elevation of Derrick Floor Above Mean Sea Level
~Curve Information Block
#MNEM.UNIT       API Code            Curve    Description
#--------        --------------      -----    -------------------
DEPT  .F                             :0       Index
BS    .IN                            :1       Bit Size                      
DTCO  .US/F                          :2       Delta-T Compressional         
DTSM_FAST.US/F                       :3       Shear Slowness of Fast Shear Waves
DTSM_SLOW.US/F                       :4       Shear Slowness of Slow Shear Waves
DTST  .US/F                          :5       Delta-T Stoneley - Monopole Stoneley
FLAG  .                              :6       General Indicator Flag        
FSH_AZIM_ERR.DEG                     :7       Fast shear azimuth error      
FSH_AZIM_FILTERED.DEG                :8       Filtered estimate of fast shear azimuth from pad1 azimuth
FSH_P1NO.DEG                         :9       Estimated fast shear azimuth from pad1 azimuth in plane orthogonal to tool axis
GR_EDTC.GAPI                         :10      Gamma Ray                     
HAZIM .DEG                           :11      Hole Azimuth                  
HD1_PPC1.IN                          :12      PPC1 Hole Diameter 1          
HD2_PPC1.IN                          :13      PPC1 Hole Diameter 2          
MAXXENE_OVERALL.                     :14      Overall estimate of maximum cross energy
MINXENE_OVERALL.                     :15      Overall estimate of minimum cross energy
P1NO_MAST.DEG                        :16      Pad 1 Azimuth in Plane Orthogonal to Tool Axis (0 = True North), memorized to MAST
PR    .                              :17      Poisson's Ratio               
RHOB  .G/C3                          :18      Bulk Density                  
SDEVM .DEG                           :19      Sonde Deviation               
SLOANI.                              :20      Slowness based anisotropy     
SPHI  .V/V                           :21      Sonic Porosity                
SVCO  .FT/S                          :22      Sonic Compressional Velocity  
SVSH  .FT/S                          :23      Sonic Shear Velocity          
TENS  .LBF                           :24      Cable Tension                 
TIMANI.                              :25      Time based anisotropy         
TWB   .US                            :26      Time window begin             
TWE   .US                            :27      Time window end               
VPVS  .                              :28      Compressional to Shear Velocity Ratio
~Ascii Data Section
   6780.00000    -999.25000      69.35368     126.13476     126.93642    -999.25000       0.00000       3.82432    -999.25000      72.17480     112.50737     292.61392       9.31454       9.22160       6.21203       1.18060     358.40887       0.28334       2.84016       0.98444       0.63354       0.15384   14418.84668    7928.02881    2954.85010       1.70753    2421.47803    4421.47803       1.81872 
   6780.50000    -999.25000      69.20898     126.54207     127.83930    -999.25000       0.00000       3.88246    -999.25000      72.37598     109.85056     292.60455       9.17101       9.22072       6.03233       1.16496     356.75696       0.28660       2.77514       0.98439       1.01991       0.15282   14448.99316    7902.51025    2893.52393       1.68287    2420.86084    4420.86084       1.82841 
   6781.00000    -999.25000      69.00111     126.88505     128.70065    -999.25000       0.00000       4.03048    -999.25000      72.91884     113.11059     292.55020       9.18310       9.22160       6.07682       1.29164     355.93015       0.29005       2.74401       0.98087       1.42074       0.15135   14492.52148    7881.14941    2904.14307       1.67328    2419.96240    4419.96191       1.83888 
   6781.50000    -999.25000      68.79139     127.36251     129.20187    -999.25000       0.00000       4.45320    -999.25000      73.50179     114.19213     292.55197       9.15708       9.19334       6.54174       1.79643     355.89752       0.29405       2.73364       0.97574       1.43384       0.14987   14536.70312    7851.60400    3169.64990       1.68305    2418.78638    4418.78613       1.85143 
   6782.00000    -999.25000      68.82792     127.50982     129.21031    -999.25000       0.00000       4.86375    -999.25000      73.69418     115.28265     292.56866       9.15708       9.15257       6.83815       2.18992     355.71429       0.29442       2.73298       0.97168       1.32478       0.15013   14528.98828    7842.53320    3108.52393       1.68499    2417.67432    4417.67432       1.85259 
   6782.50000    -999.25000      68.95777     127.54441     128.80304    -999.25000       0.00000       4.93337    -999.25000      73.75216     120.04239     292.68057       9.17101       9.22072       6.72229       2.19173     354.27164       0.29348       2.73593       0.96152       0.98197       0.15105   14501.62891    7840.40625    3018.66675       1.66978    2416.70459    4416.70459       1.84960 
   6783.00000    -999.25000      69.03077     126.99663     128.01532    -999.25000       0.00000       4.84866    -999.25000      73.89127     122.21967     292.86673       9.14737       9.21983       6.61360       2.16373     351.84241       0.29032       2.74607       0.95287       0.79894       0.15156   14486.29395    7874.22461    2972.66675       1.65481    2415.92139    4415.92090       1.83971 
   6783.50000    -999.25000      68.89109     126.31504     126.86526    -999.25000       0.00000       4.75113    -999.25000      73.88829     120.29410     293.04303       9.13580       9.23429       6.56410       2.14823     351.00085       0.28831       2.74169       0.94664       0.43465       0.15057   14515.66504    7916.71338    3067.00024       1.64720    2415.27930    4415.27930       1.83355 
   6784.00000    -999.25000      68.60085     125.55719     126.03397    -999.25000       0.00000       4.68808    -999.25000      73.73838     116.27996     293.26071       9.19338       9.13896       6.54990       2.13093     350.83591       0.28722       2.73777       0.94072       0.37901       0.14852   14577.08008    7964.49805    3105.09546       1.64565    2414.46729    4414.46729       1.83026 
   6784.50000    -999.25000      68.39912     124.76303     125.76463    -999.25000       0.00000       4.63232    -999.25000      73.53367     119.44165     293.54034       9.19518       9.18262       6.53012       2.11458     350.82425       0.28514       2.75295       0.93458       0.79959       0.14709   14620.07031    8015.19482    3021.23804       1.64159    2413.71045    4413.71045       1.82404 
   6785.00000    -999.25000      68.24549     123.95493     125.77381    -999.25000       0.00000       4.55961    -999.25000      73.36089     118.92218     293.87170       9.19491       9.16904       6.52510       2.10015     350.83017       0.28251       2.78033       0.92921       1.45669       0.14601   14652.98242    8067.44873    2942.38086       1.63949    2412.97729    4412.97754       1.81631 
   6785.50000    -999.25000      68.11603     123.33388     125.18720    -999.25000       0.00000       4.52625    -999.25000      73.22513     121.85619     294.30222       9.23088       9.19533       6.55603       2.08771     350.45621       0.28055       2.78853       0.92665       1.49148       0.14509   14680.83301    8108.07227    3189.61914       1.64357    2412.13062    4412.13086       1.81064 
   6786.00000    -999.25000      67.91340     122.76369     124.13416    -999.25000       0.00000       4.53324    -999.25000      73.13853     115.55720     294.68808       9.23088       9.15546       6.61548       2.07539     348.30200       0.27950       2.77667       0.92673       1.11015       0.14366   14724.63477    8145.73145    3169.19043       1.65203    2411.76294    4411.76270       1.80765 
   6786.50000    -999.25000      67.73621     122.30389     123.72564    -999.25000       0.00000       4.48180    -999.25000      73.16513     118.28424     295.16135       9.22911       9.15257       6.73149       2.05576     346.70966       0.27878       2.76558       0.92952       1.15576       0.14241   14763.15137    8176.35498    3101.90918       1.66850    2412.08130    4412.08105       1.80559 
   6787.00000    -999.25000      67.62860     121.99246     123.44451    -999.25000       0.00000       4.32000    -999.25000      73.29378     112.69876     295.72751       9.23088       9.19445       6.91092       2.02392     346.38165       0.27816       2.76468       0.93426       1.18324       0.14164   14786.64355    8197.22754    2995.90479       1.69146    2412.40283    4412.40234       1.80386 
   6787.50000    -999.25000      67.63924     121.84586     123.32716    -999.25000       0.00000       4.07243    -999.25000      73.19445     109.95667     296.26529       9.21880       9.20714       6.94332       1.95412     346.38092       0.27729       2.76243       0.93941       1.20837       0.14172   14784.31641    8207.08984    3015.61890       1.69580    2413.20703    4413.20703       1.80141 
   6788.00000    -999.25000      67.74075     122.28485     123.47185    -999.25000       0.00000       3.42366    -999.25000      72.92406     105.10491     296.68781       9.21880       9.19445       6.43721       1.39885     345.98813       0.27863       2.75148       0.94753       0.96599       0.14244   14762.16406    8177.62793    3073.14282       1.67393    2414.26416    4414.26416       1.80519 
   6788.50000    -999.25000      67.89433     123.14483     123.65772    -999.25000       0.00000       2.82801    -999.25000      73.09854     106.13638     297.11337       9.20493       9.20570       6.22613       0.84915     345.16647       0.28164       2.73908       0.95114       0.41563       0.14352   14728.76953    8120.51953    3044.33325       1.68643    2414.21362    4414.21387       1.81377 
   6789.00000    -999.25000      68.00614     123.45808     123.89196    -999.25000       0.00000       2.70635    -999.25000      73.42685     111.57424     297.34274       9.19491       9.23341       6.67724       0.78222     344.96390       0.28220       2.73080       0.95404       0.35082       0.14432   14704.55469    8099.91504    2946.13623       1.73997    2413.59570    4413.59570       1.81540 
   6789.50000    -999.25000      68.03055     123.55247     124.15773    -999.25000       0.00000       2.60447    -999.25000      73.56784     116.94055     297.65024       9.20672       9.24609       7.11086       0.75328     344.57236       0.28245       2.72883       0.95589       0.48868       0.14449   14699.27930    8093.72705    2981.66675       1.79063    2413.35303    4413.35352       1.81613 
