~Version Information
VERS  .          2.0                              :CWLS Log Ascii Standard - Version 2.0
WRAP  .          NO                               :One line per depth step
~Well Information Block
#MNEM.UNIT       Data Type                        Information
#---------       ---------                        -------------------------------
STRT  .F         6780.00000                       :START DEPTH
STOP  .F         7804.00000                       :STOP DEPTH
STEP  .F          0.50000                         :INCREMENT 
NULL  .          -999.25                          :NULL DATA VALUE
COMP  .          NORTHEAST NATURAL ENERGY         :COMPANY
WELL  .          MIP_3H                           :WELL
FLD   .          MONONGALIA                       :FIELD
LOC   .          LONG  .DEG       -79.976624      :LOCATION
LOC1  .          LATI  .DEG       39.602203       :LOCATION
STAT  .          WEST VIRGINIA                    :STATE
CNTY  .          MONONGALIA                       :COUNTY
CTRY  .          USA                              :COUNTRY
DATE  .          05-SEP-2015                      :DATE
UWI   .          47-061-01707-00-00               :UNIQUE WELL UWI
API   .          47-061-01707-00-00               :API NUMBER
SRVC  .          SLB                              :SERVICE COMPANY
~Parameter Information Block
#MNEM.UNIT       Value                            Description
#---------       ---------                        -------------
LONG  .DEG       -79.976624                       :Well Surface Location
LATI  .DEG       39.602203                        :Well Surface Location
XWELL .DEG       -79.976624                       :X-coordinate of Well Head
YWELL .DEG       39.602203                        :Y-coordinate of Well Head
PDAT  .          GL                               :Permanent Datum               
EPD   .ft        1058.00                          :Elevation of Permanent Datum (PDAT) above Mean Sea Level
LMF   .          KB                               :Logging Measured From (Name of Working Datum)
APD   .ft        22.50                            :Elevation of Working Datum (LMF) Above Permanent Datum
EKB   .ft        1080.50                          :Elevation of Kelly Bushing Above Mean Sea Level
EGL   .ft        1058.00                          :Elevation of Ground Level Above Mean Sea Level
EDF   .ft        1080.50                          :Elevation of Derrick Floor Above Mean Sea Level
~Curve Information Block
#MNEM.UNIT       API Code            Curve    Description
#--------        --------------      -----    -------------------
DEPT  .F                             :0       Index
BS    .IN                            :1       Bit Size                      
DTCO  .US/F                          :2       Delta-T Compressional         
DTSM_FAST.US/F                       :3       Shear Slowness of Fast Shear Waves
DTSM_SLOW.US/F                       :4       Shear Slowness of Slow Shear Waves
DTST  .US/F                          :5       Delta-T Stoneley - Monopole Stoneley
FLAG  .                              :6       General Indicator Flag        
FSH_AZIM_ERR.DEG                     :7       Fast shear azimuth error      
FSH_AZIM_FILTERED.DEG                :8       Filtered estimate of fast shear azimuth from pad1 azimuth
FSH_P1NO.DEG                         :9       Estimated fast shear azimuth from pad1 azimuth in plane orthogonal to tool axis
GR_EDTC.GAPI                         :10      Gamma Ray                     
HAZIM .DEG                           :11      Hole Azimuth                  
HD1_PPC1.IN                          :12      PPC1 Hole Diameter 1          
HD2_PPC1.IN                          :13      PPC1 Hole Diameter 2          
MAXXENE_OVERALL.                     :14      Overall estimate of maximum cross energy
MINXENE_OVERALL.                     :15      Overall estimate of minimum cross energy
P1NO_MAST.DEG                        :16      Pad 1 Azimuth in Plane Orthogonal to Tool Axis (0 = True North), memorized to MAST
PR    .                              :17      Poisson's Ratio               
RHOB  .G/C3                          :18      Bulk Density                  
SDEVM .DEG                           :19      Sonde Deviation               
SLOANI.                              :20      Slowness based anisotropy     
SPHI  .V/V                           :21      Sonic Porosity                
SVCO  .FT/S                          :22      Sonic Compressional Velocity  
SVSH  .FT/S                          :23      Sonic Shear Velocity          
TENS  .LBF                           :24      Cable Tension                 
TIMANI.                              :25      Time based anisotropy         
TWB   .US                            :26      Time window begin             
TWE   .US                            :27      Time window end               
VPVS  .                              :28      Compressional to Shear Velocity Ratio
~Ascii Data Section
# ...
   7120.00000       8.75000      71.84601     121.27906     121.31033     206.13922       0.00000       6.49787    -999.25000      38.02621     100.27321     273.60254       8.97774       9.03443       2.12276       0.76772     300.74384       0.22965       2.84882       3.77415       0.02578       0.17147   13918.65820    8245.44629    2994.25000       0.03565    2375.20044    4375.20020       1.68804 
   7120.50000       8.75000      72.54214     121.09238     121.12611     206.45692       0.00000       6.13954    -999.25000      37.25829      99.45950     273.62534       8.96762       9.05018       2.23731       0.78092     300.47821       0.22012       2.77135       3.77485       0.02786       0.17639   13785.09180    8258.15820    3054.55005       0.05954    2376.89258    4376.89258       1.66927 
   7121.00000       8.75000      73.68762     120.72012     120.85216     206.86098       0.00000       6.06258    -999.25000      36.48298     101.57019     273.64999       8.96560       9.04718       2.36525       0.80146     299.36844       0.20307       2.68417       3.77354       0.10931       0.18450   13570.79980    8283.62305    3170.75000       0.10065    2378.66309    4378.66309       1.63827 
   7121.50000       8.75000      74.38812     119.87572     120.40450     207.17017       0.00000       6.12749    -999.25000      36.19180     101.08298     273.68280       8.97747       9.00892       2.40723       0.81500     298.42432       0.18689       2.64527       3.77105       0.44013       0.18945   13443.00586    8341.97266    3081.85010       0.09062    2380.14697    4380.14697       1.61149 
   7122.00000       8.75000      74.20786     118.75150     119.80219     207.30186       0.00000       6.25686    -999.25000      36.12609     108.81138     273.72562       8.97774       9.02168       2.41317       0.82680     298.07428       0.17965       2.64576       3.76878       0.88088       0.18817   13475.66211    8420.94629    2988.65015       0.05339    2381.37061    4381.37061       1.60026 
   7122.50000       8.75000      73.18137     117.92027     119.70876     207.27620       0.00000       6.38018    -999.25000      35.94269     108.43496     273.77292       8.96560       9.04718       2.42354       0.84694     298.03476       0.18680       2.65113       3.76755       1.50527       0.18091   13664.68066    8480.30566    2935.14282       0.04371    2382.06641    4382.06641       1.61134 
   7123.00000       8.75000      72.37022     117.99272     120.16645     207.06358       0.00000       6.52742    -999.25000      35.68792     111.57158     273.81726       8.97747       9.05992       2.46057       0.87107     297.86209       0.19847       2.65219       3.76665       1.82544       0.17518   13817.83789    8475.09863    3119.80005       0.06109    2381.40332    4381.40332       1.63040 
   7123.50000       8.75000      72.09346     119.22487     120.91988     206.94885       0.00000       6.62987    -999.25000      35.47866     105.31173     273.85236       8.96560       9.04629       2.48903       0.88066     297.40018       0.21180       2.65016       3.76391       1.41165       0.17322   13870.88379    8387.51172    3080.14990       0.07151    2378.70459    4378.70410       1.65375 
   7124.00000       8.75000      72.91787     121.15684     121.76569     206.97629       0.00000       6.67455    -999.25000      35.22873     110.32150     273.87732       8.97747       9.04629       2.47284       0.87409     296.97452       0.21603       2.65036       3.76100       0.50127       0.17905   13714.05957    8253.76465    3009.89990       0.07265    2373.65869    4373.65869       1.66155 
   7124.50000       8.75000      74.34326     122.55399     122.55399     207.12059       0.00000       6.69183    -999.25000      34.87725     114.24947     273.90744       8.97747       9.05992       2.43566       0.85747     296.89001       0.20888       2.64755       3.75579       0.00000       0.18913   13451.11816    8159.66943    3083.94995       0.08668    2367.17871    4367.17871       1.64849 
   7125.00000       8.75000      75.66711     123.32198     123.32198     207.29678       0.00000       6.84222    -999.25000      34.58997     120.34785     273.91125       8.99055       9.05992       2.38775       0.83658     296.64096       0.19811       2.64123       3.75282       0.00000       0.19849   13215.78223    8108.85498    3197.25024       0.09199    2361.28418    4361.28418       1.62980 
   7125.50000       8.75000      76.03315     124.00139     124.00139     207.35832       0.00000       6.91924    -999.25000      34.47105     116.18689     273.90536       8.97747       9.05992       2.35099       0.81924     296.17267       0.19876       2.63644       3.75017       0.00000       0.20108   13152.15820    8064.42578    3173.19043       0.05978    2356.58154    4356.58154       1.63089 
   7126.00000       8.75000      74.98223     124.29298     124.31732     207.27490       0.00000       6.72831    -999.25000      34.33677     111.83543     273.89706       8.96762       9.06291       2.32594       0.80400     295.81406       0.21392       2.63978       3.74763       0.01959       0.19365   13336.49316    8045.50684    3060.15015       0.02501    2352.67090    4352.67090       1.65763 
   7126.50000       8.75000      72.99399     123.55309     124.46221     207.05856       0.00000       6.68155    -999.25000      34.23991     108.41607     273.88745       8.98933       9.05992       2.25911       0.79463     295.59033       0.23191       2.65186       3.74545       0.73312       0.17959   13699.75879    8093.68701    3032.59985       0.03715    2349.36963    4349.36914       1.69265 
   7127.00000       8.75000      70.23133     121.49852     122.86658     206.75089       0.00000       6.83387    -999.25000      34.33730     109.20382     273.87869       8.97824       9.06291       2.15894       0.79440     295.24683       0.24910       2.66611       3.74376       1.11968       0.16005   14238.65918    8230.55273    2986.85010       0.08947    2346.36108    4346.36084       1.72998 
   7127.50000       8.75000      67.11512     118.47519     119.61200     206.48439       0.00000       6.99393    -999.25000      34.32528     101.59935     273.87256       8.97747       9.07266       2.10151       0.79798     294.59338       0.26372       2.68189       3.74257       0.95495       0.13801   14899.77246    8440.58594    3025.69995       0.12001    2343.36963    4343.36963       1.76525 
   7128.00000       8.75000      64.24477     115.17661     116.13034     206.33015       0.00000       7.19305    -999.25000      33.96348      87.85801     273.86935       8.97747       9.07266       2.08146       0.79967     293.88782       0.27417       2.69560       3.74191       0.82465       0.11771   15565.47070    8682.31836    3139.05005       0.11042    2340.44922    4340.44922       1.79278 
   7128.50000       8.75000      62.80056     112.59093     113.73144     206.28268       0.00000       7.33703    -999.25000      33.67735      80.99825     273.87341       8.96638       9.07564       2.07902       0.79377     293.75839       0.27419       2.70280       3.74140       1.00786       0.10750   15923.42383    8881.70996    3111.47632       0.11983    2337.81299    4337.81299       1.79283 
   7129.00000       8.75000      63.34974     112.48642     113.61530     206.39381       0.00000       7.29711    -999.25000      33.52030      84.13449     273.88263       8.98933       9.03266       2.06647       0.77941     293.62256       0.26776       2.69336       3.73989       0.99856       0.11138   15785.38379    8889.96191    2980.50000       0.14676    2335.81641    4335.81641       1.77564 
   7129.50000       8.75000      65.98489     114.28577     114.91042     206.67648       0.00000       7.15237    -999.25000      33.33732      99.74451     273.88892       8.98933       9.03355       2.02912       0.76869     293.10941       0.24998       2.67412       3.73746       0.54508       0.13002   15154.98535    8749.99609    3054.89990       0.17126    2334.16699    4334.16748       1.73200 
