~Version Information
VERS  .          2.0                              :CWLS Log Ascii Standard - Version 2.0
WRAP  .          NO                               :One line per depth step
~Well Information Block
#MNEM.UNIT       Data Type                        Information
#---------       ---------                        -------------------------------
STRT  .F         6780.00000                       :START DEPTH
STOP  .F         7804.00000                       :STOP DEPTH
STEP  .F          0.50000                         :INCREMENT 
NULL  .          -999.25                          :NULL DATA VALUE
COMP  .          NORTHEAST NATURAL ENERGY         :COMPANY
WELL  .          MIP_3H                           :WELL
FLD   .          MONONGALIA                       :FIELD
LOC   .          LONG  .DEG       -79.976624      :LOCATION
LOC1  .          LATI  .DEG       39.602203       :LOCATION
STAT  .          WEST VIRGINIA                    :STATE
CNTY  .          MONONGALIA                       :COUNTY
CTRY  .          USA                              :COUNTRY
DATE  .          05-SEP-2015                      :DATE
UWI   .          47-061-01707-00-00               :UNIQUE WELL UWI
API   .          47-061-01707-00-00               :API NUMBER
SRVC  .          SLB                              :SERVICE COMPANY
~Parameter Information Block
#MNEM.UNIT       Value                            Description
#---------       ---------                        -------------
LONG  .DEG       -79.976624                       :Well Surface Location
LATI  .DEG       39.602203                        :Well Surface Location
XWELL .DEG       -79.976624                       :X-coordinate of Well Head
YWELL .DEG       39.602203                        :Y-coordinate of Well Head
PDAT  .          GL                               :Permanent Datum               
EPD   .ft        1058.00                          :Elevation of Permanent Datum (PDAT) above Mean Sea Level
LMF   .          KB                               :Logging Measured From (Name of Working Datum)
APD   .ft        22.50                            :Elevation of Working Datum (LMF) Above Permanent Datum
EKB   .ft        1080.50                          :Elevation of Kelly Bushing Above Mean Sea Level
EGL   .ft        1058.00                          :Elevation of Ground Level Above Mean Sea Level
EDF   .ft        1080.50                          :Elevation of Derrick Floor Above Mean Sea Level
~Curve Information Block
#MNEM.UNIT       API Code            Curve    Description
#--------        --------------      -----    -------------------
DEPT  .F                             :0       Index
BS    .IN                            :1       Bit Size                      
DTCO  .US/F                          :2       Delta-T Compressional         
DTSM_FAST.US/F                       :3       Shear Slowness of Fast Shear Waves
DTSM_SLOW.US/F                       :4       Shear Slowness of Slow Shear Waves
DTST  .US/F                          :5       Delta-T Stoneley - Monopole Stoneley
FLAG  .                              :6       General Indicator Flag        
FSH_AZIM_ERR.DEG                     :7       Fast shear azimuth error      
FSH_AZIM_FILTERED.DEG                :8       Filtered estimate of fast shear azimuth from pad1 azimuth
FSH_P1NO.DEG                         :9       Estimated fast shear azimuth from pad1 azimuth in plane orthogonal to tool axis
GR_EDTC.GAPI                         :10      Gamma Ray                     
HAZIM .DEG                           :11      Hole Azimuth                  
HD1_PPC1.IN                          :12      PPC1 Hole Diameter 1          
HD2_PPC1.IN                          :13      PPC1 Hole Diameter 2          
MAXXENE_OVERALL.                     :14      Overall estimate of maximum cross energy
MINXENE_OVERALL.                     :15      Overall estimate of minimum cross energy
P1NO_MAST.DEG                        :16      Pad 1 Azimuth in Plane Orthogonal to Tool Axis (0 = True North), memorized to MAST
PR    .                              :17      Poisson's Ratio               
RHOB  .G/C3                          :18      Bulk Density                  
SDEVM .DEG                           :19      Sonde Deviation               
SLOANI.                              :20      Slowness based anisotropy     
SPHI  .V/V                           :21      Sonic Porosity                
SVCO  .FT/S                          :22      Sonic Compressional Velocity  
SVSH  .FT/S                          :23      Sonic Shear Velocity          
TENS  .LBF                           :24      Cable Tension                 
TIMANI.                              :25      Time based anisotropy         
TWB   .US                            :26      Time window begin             
TWE   .US                            :27      Time window end               
VPVS  .                              :28      Compressional to Shear Velocity Ratio
~Ascii Data Section
# ...
   7720.00000       8.75000      59.75383      96.78654      97.67621     207.53502       0.00000      14.45995    -999.25000     177.31407      50.12608     334.37851       8.61519       8.63566       1.63778       1.16014     254.15146       0.19204       2.59125       7.37660       0.91500       0.08595   16735.33008   10332.01465    3275.17383       0.24599    2034.79321    4034.79346       1.61975 
   7720.50000       8.75000      60.15495      96.32156      96.65122     207.53990       0.00000      14.41562    -999.25000     176.79147      45.60542     334.18097       8.62710       8.63566       1.62972       1.15076     253.59995       0.18029       2.60943       7.40062       0.34167       0.08879   16623.73633   10381.89160    3279.58325       0.24023    2036.76526    4036.76514       1.60122 
   7721.00000       8.75000      60.80514      95.92825      96.28899     207.76343       0.00000      14.35254    -999.25000     175.41388      48.67826     333.96796       8.62742       8.63566       1.64995       1.14811     253.30022       0.16419       2.62491       7.42456       0.37535       0.09339   16445.97852   10424.45801    3300.82617       0.22788    2039.28003    4039.27979       1.57763 
   7721.50000       8.75000      61.43855      96.34956      96.67498     207.92932       0.00000      14.22140    -999.25000     174.05536      52.24743     333.74255       8.62710       8.63566       1.68055       1.14776     252.87518       0.15738       2.62885       7.44760       0.33718       0.09787   16276.42480   10378.87500    3284.69580       0.22583    2042.19678    4042.19678       1.56823 
   7722.00000       8.75000      61.85970      96.64394      97.49577     207.91597       0.00000      14.19345    -999.25000     172.71745      55.90629     333.50055       8.61519       8.63566       1.68009       1.16019     252.21562       0.15297       2.61685       7.47095       0.87755       0.10085   16165.61426   10347.26074    3271.08691       0.19831    2045.00977    4045.01001       1.56231 
   7722.50000       8.75000      61.96021      96.98036      97.89125     207.81258       0.00000      13.72511    -999.25000     171.16223      55.52948     333.21982       8.61519       8.63566       1.68465       1.16531     251.59346       0.15514       2.60039       7.49698       0.93486       0.10156   16139.39160   10311.36621    3261.83325       0.16972    2047.78198    4047.78223       1.56520 
   7723.00000       8.75000      61.78497      97.13815      97.79409     207.73784       0.00000      13.25649    -999.25000     170.38901      52.82386     332.96420       8.62742       8.63566       1.71038       1.16048     250.70493       0.16028       2.58419       7.51891       0.67300       0.10032   16185.16699   10294.61719    3318.47827       0.16587    2050.57080    4050.57080       1.57220 
   7723.50000       8.75000      61.28529      97.13644      97.42355     207.79140       0.00000      13.56380    -999.25000     169.95633      53.16505     332.70361       8.61519       8.63566       1.71479       1.16478     250.17091       0.16935       2.57368       7.54078       0.29514       0.09678   16317.12891   10294.79785    3273.43481       0.16159    2052.84668    4052.84668       1.58499 
   7724.00000       8.75000      60.66444      97.16771      97.48950     207.89839       0.00000      14.11632    -999.25000     169.18881      53.12558     332.43878       8.61519       8.63566       1.72364       1.17252     249.99574       0.18062       2.56933       7.56302       0.33062       0.09239   16484.12109   10291.48438    3311.75000       0.15900    2054.95215    4054.95215       1.60172 
   7724.50000       8.75000      60.88992      97.42376      97.79102     208.06252       0.00000      14.32930    -999.25000     168.40042      54.72318     332.15179       8.61519       8.63566       1.74049       1.17481     249.67401       0.17949       2.56633       7.58612       0.37626       0.09399   16423.08008   10264.43652    3292.73926       0.16148    2057.37598    4057.37598       1.60000 
   7725.00000       8.75000      61.52312      97.92068      98.53585     208.29277       0.00000      14.36669    -999.25000     167.37180      53.63348     331.85425       8.62710       8.64939       1.73737       1.16786     249.24100       0.17389       2.56974       7.61043       0.62626       0.09847   16254.05176   10212.34668    3297.17407       0.14703    2059.88037    4059.88037       1.59161 
   7725.50000       8.75000      62.21210      98.78444      99.22382     208.57225       0.00000      14.28634    -999.25000     166.39519      57.63528     331.58728       8.61519       8.63566       1.75980       1.17178     248.55005       0.17134       2.57905       7.63437       0.44380       0.10334   16074.04395   10123.05176    3272.87500       0.13126    2062.50977    4062.50977       1.58787 
   7726.00000       8.75000      62.47271      99.67366     100.33417     208.76355       0.00000      14.14598    -999.25000     165.82242      62.18752     331.32620       8.62710       8.63566       1.79926       1.19802     247.99799       0.17649       2.58246       7.65883       0.66048       0.10518   16006.98926   10032.74121    3275.78271       0.12362    2065.53760    4065.53760       1.59548 
   7726.50000       8.75000      62.27139     100.40518     100.92487     208.73918       0.00000      14.02130    -999.25000     165.27528      67.07103     331.07193       8.62810       8.63907       1.81129       1.21952     247.51898       0.18746       2.58047       7.68414       0.51625       0.10376   16058.73926    9959.64551    3272.73926       0.11947    2068.61182    4068.61182       1.61238 
   7727.00000       8.75000      61.81813     100.29707     100.89886     208.53947       0.00000      13.87554    -999.25000     164.61353      68.17140     330.80307       8.61519       8.63566       1.81347       1.21920     246.81453       0.19369       2.57399       7.71259       0.59821       0.10055   16176.48438    9970.38086    3302.73901       0.12286    2070.89160    4070.89160       1.62245 
   7727.50000       8.75000      61.77971      99.83911     100.21119     208.34468       0.00000      14.15001    -999.25000     164.26465      66.40392     330.55573       8.61519       8.63566       1.80305       1.20935     246.15152       0.18975       2.57302       7.73959       0.37198       0.10028   16186.54297   10016.11523    3293.08691       0.12710    2072.26050    4072.26050       1.61605 
   7728.00000       8.75000      62.09974      99.43657      99.43657     208.11714       0.00000      14.30017    -999.25000     163.73715      64.87371     330.32812       8.62710       8.66649       1.77640       1.19500     245.53398       0.18030       2.57806       7.76519       0.00000       0.10254   16103.12598   10056.66211    3258.91309       0.12046    2072.97046    4072.97046       1.60124 
   7728.50000       8.75000      62.47389      99.86787      99.86787     207.99315       0.00000      13.69568    -999.25000     162.87283      60.90718     330.10632       8.62710       8.63566       1.77510       1.18013     244.87762       0.17853       2.58531       7.79031       0.00000       0.10519   16006.68750   10013.23047    3316.66675       0.10888    2073.11060    4073.11060       1.59855 
   7729.00000       8.75000      62.60299     101.01866     101.01866     208.06639       0.00000      13.08125    -999.25000     162.52669      59.11279     329.88879       8.62710       8.63566       1.78717       1.18016     244.22385       0.18825       2.59475       7.81518       0.00000       0.10610   15973.67871    9899.16113    3297.17407       0.11748    2072.57227    4072.57227       1.61364 
   7729.50000       8.75000      62.71161     102.45499     102.73038     208.51152       0.00000      12.73893    -999.25000     162.31357      62.28732     329.64163       8.62710       8.63566       1.78767       1.19095     243.51787       0.20044       2.60991       7.84388       0.26842       0.10687   15946.01172    9760.38281    3278.21729       0.12742    2071.18164    4071.18164       1.63375 
