~Version Information
VERS  .          2.0                              :CWLS Log Ascii Standard - Version 2.0
WRAP  .          NO                               :One line per depth step
~Well Information Block
#MNEM.UNIT       Data Type                        Information
#---------       ---------                        -------------------------------
STRT  .F         6780.00000                       :START DEPTH
STOP  .F         7804.00000                       :STOP DEPTH
STEP  .F          0.50000                         :INCREMENT 
NULL  .          -999.25                          :NULL DATA VALUE
COMP  .          NORTHEAST NATURAL ENERGY         :COMPANY
WELL  .          MIP_3H                           :WELL
FLD   .          MONONGALIA                       :FIELD
LOC   .          LONG  .DEG       -79.976624      :LOCATION
LOC1  .          LATI  .DEG       39.602203       :LOCATION
STAT  .          WEST VIRGINIA                    :STATE
CNTY  .          MONONGALIA                       :COUNTY
CTRY  .          USA                              :COUNTRY
DATE  .          05-SEP-2015                      :DATE
UWI   .          47-061-01707-00-00               :UNIQUE WELL UWI
API   .          47-061-01707-00-00               :API NUMBER
SRVC  .          SLB                              :SERVICE COMPANY
~Parameter Information Block
#MNEM.UNIT       Value                            Description
#---------       ---------                        -------------
LONG  .DEG       -79.976624                       :Well Surface Location
LATI  .DEG       39.602203                        :Well Surface Location
XWELL .DEG       -79.976624                       :X-coordinate of Well Head
YWELL .DEG       39.602203                        :Y-coordinate of Well Head
PDAT  .          GL                               :Permanent Datum               
EPD   .ft        1058.00                          :Elevation of Permanent Datum (PDAT) above Mean Sea Level
LMF   .          KB                               :Logging Measured From (Name of Working Datum)
APD   .ft        22.50                            :Elevation of Working Datum (LMF) Above Permanent Datum
EKB   .ft        1080.50                          :Elevation of Kelly Bushing Above Mean Sea Level
EGL   .ft        1058.00                          :Elevation of Ground Level Above Mean Sea Level
EDF   .ft        1080.50                          :Elevation of Derrick Floor Above Mean Sea Level
~Curve Information Block
#MNEM.UNIT       API Code            Curve    Description
#--------        --------------      -----    -------------------
DEPT  .F                             :0       Index
BS    .IN                            :1       Bit Size                      
DTCO  .US/F                          :2       Delta-T Compressional         
DTSM_FAST.US/F                       :3       Shear Slowness of Fast Shear Waves
DTSM_SLOW.US/F                       :4       Shear Slowness of Slow Shear Waves
DTST  .US/F                          :5       Delta-T Stoneley - Monopole Stoneley
FLAG  .                              :6       General Indicator Flag        
FSH_AZIM_ERR.DEG                     :7       Fast shear azimuth error      
FSH_AZIM_FILTERED.DEG                :8       Filtered estimate of fast shear azimuth from pad1 azimuth
FSH_P1NO.DEG                         :9       Estimated fast shear azimuth from pad1 azimuth in plane orthogonal to tool axis
GR_EDTC.GAPI                         :10      Gamma Ray                     
HAZIM .DEG                           :11      Hole Azimuth                  
HD1_PPC1.IN                          :12      PPC1 Hole Diameter 1          
HD2_PPC1.IN                          :13      PPC1 Hole Diameter 2          
MAXXENE_OVERALL.                     :14      Overall estimate of maximum cross energy
MINXENE_OVERALL.                     :15      Overall estimate of minimum cross energy
P1NO_MAST.DEG                        :16      Pad 1 Azimuth in Plane Orthogonal to Tool Axis (0 = True North), memorized to MAST
PR    .                              :17      Poisson's Ratio               
RHOB  .G/C3                          :18      Bulk Density                  
SDEVM .DEG                           :19      Sonde Deviation               
SLOANI.                              :20      Slowness based anisotropy     
SPHI  .V/V                           :21      Sonic Porosity                
SVCO  .FT/S                          :22      Sonic Compressional Velocity  
SVSH  .FT/S                          :23      Sonic Shear Velocity          
TENS  .LBF                           :24      Cable Tension                 
TIMANI.                              :25      Time based anisotropy         
TWB   .US                            :26      Time window begin             
TWE   .US                            :27      Time window end               
VPVS  .                              :28      Compressional to Shear Velocity Ratio
~Ascii Data Section
# ...
   7390.00000       8.75000      80.77522     140.96713     141.40604     207.66365       0.00000      14.35665    -999.25000      77.33624     136.34911     286.09985       8.98933       9.08803       2.13700       1.44470     330.03961       0.25558       2.67442       2.56452       0.31087       0.23462   12380.03516    7093.85205    3086.61914       0.61162    2592.84546    4592.84570       1.74518 
   7390.50000       8.75000      80.56427     141.53894     141.80302     207.37532       0.00000      17.69770    -999.25000      73.34244     131.97667     286.04993       8.98933       9.08803       2.01249       1.49681     329.90427       0.26036       2.68100       2.55999       0.18641       0.23313   12412.45020    7065.19336    3135.23828       0.46071    2591.80884    4591.80859       1.75685 
   7391.00000       8.75000      80.34731     141.49236     141.79367     207.11128       0.00000      19.72640    -999.25000      67.32124     129.64319     286.02777       9.00173       9.08803       1.95569       1.50185     329.82718       0.26204       2.69250       2.55600       0.21273       0.23159   12445.96680    7067.51953    3228.72729       0.24622    2590.84888    4590.84863       1.76101 
   7391.50000       8.75000      80.15778     141.11435     141.53011     207.05968       0.00000      19.82685    -999.25000      61.63430     131.24634     286.04221       9.00173       9.06080       2.00477       1.51054     328.74063       0.26182       2.69948       2.55339       0.29419       0.23025   12475.39453    7086.45166    3142.42847       0.06651    2590.02344    4590.02344       1.76046 
   7392.00000       8.75000      80.02139     140.51982     141.24849     207.08620       0.00000      19.29015    -999.25000      61.49186     127.12843     286.04816       9.00173       9.06080       2.14114       1.51495     328.28555       0.26003       2.69334       2.55015       0.51721       0.22929   12496.65918    7116.43359    3139.27271       0.09253    2589.12549    4589.12549       1.75603 
   7392.50000       8.75000      79.77208     139.27113     140.51106     207.24870       0.00000      18.71062    -999.25000      63.74129     127.51988     286.04089       9.00173       9.06080       2.26424       1.49301     327.93564       0.25586       2.68851       2.54812       0.88635       0.22753   12535.71387    7180.23877    3235.95239       0.20169    2587.76123    4587.76172       1.74586 
   7393.00000       8.75000      79.21917     137.97722     139.21393     207.28853       0.00000      18.26665    -999.25000      63.81479     124.90871     286.07132       9.00173       9.06080       2.20278       1.40194     327.20920       0.25413       2.68793       2.54751       0.89232       0.22362   12623.20703    7247.57324    3224.36377       0.20250    2585.83105    4585.83105       1.74172 
   7393.50000       8.75000      78.58540     137.30852     137.72237     207.39095       0.00000      18.13321    -999.25000      61.80338     120.25746     286.07211       8.98987       9.07442       2.04432       1.29859     326.23129       0.25644       2.69202       2.54683       0.30095       0.21913   12725.00977    7282.86963    3160.72729       0.11818    2583.16309    4583.16309       1.74725 
   7394.00000       8.75000      78.27265     137.27155     137.27155     207.54762       0.00000      17.61312    -999.25000      58.47001     120.52100     286.08539       8.99187       9.09099       1.90060       1.21691     324.52737       0.25911       2.68976       2.54655       0.00000       0.21692   12775.85449    7284.83105    3153.36377       0.09476    2579.36230    4579.36230       1.75376 
   7394.50000       8.75000      78.67037     137.89014     137.89014     207.81262       0.00000      17.31254    -999.25000      56.55748     120.73751     286.09122       8.97800       9.08803       1.79351       1.14863     323.65613       0.25871       2.68069       2.54631       0.00000       0.21973   12711.26562    7252.15039    3125.22729       0.12749    2575.25977    4575.25977       1.75276 
   7395.00000       8.75000      79.48394     138.68317     138.93379     207.92114       0.00000      18.24414    -999.25000      57.25146     126.45512     286.09973       8.98987       9.08803       1.74165       1.15086     323.39972       0.25542       2.67247       2.54636       0.18055       0.22549   12581.15820    7210.68066    3125.50000       0.09326    2571.52246    4571.52246       1.74479 
   7395.50000       8.75000      80.10983     139.02861     139.44441     207.78516       0.00000      19.45559    -999.25000      59.02247     123.13478     286.10706       8.97800       9.04805       1.70710       1.17447     322.97437       0.25148       2.67213       2.54646       0.29863       0.22991   12482.86328    7192.76416    3180.09521       0.04694    2566.97510    4566.97559       1.73548 
   7396.00000       8.75000      80.14844     138.81810     139.24234     207.54301       0.00000      20.15184    -999.25000      61.47171     122.86677     286.10880       8.97800       9.04805       1.67548       1.18233     322.01950       0.24998       2.67469       2.54684       0.30514       0.23019   12476.84961    7203.67139    3210.63647       0.08958    2561.50366    4561.50391       1.73201 
   7396.50000       8.75000      79.50275     137.94902     137.94902     207.27626       0.00000      19.81200    -999.25000      65.53326     114.12904     286.14862       8.97800       9.06167       1.68392       1.16484     320.43423       0.25134       2.68718       2.54937       0.00000       0.22562   12578.18164    7249.05469    3142.09082       0.25479    2556.16064    4556.16064       1.73515 
   7397.00000       8.75000      78.17489     136.16534     136.16534     206.89546       0.00000      18.51903    -999.25000      69.40257     114.04533     286.16269       8.95424       9.06253       1.69124       1.10468     320.43805       0.25416       2.70364       2.55028       0.00000       0.21623   12791.83105    7344.01270    3086.09082       0.43835    2551.24951    4551.24951       1.74180 
   7397.50000       8.75000      76.31040     133.11594     133.11594     206.58453       0.00000      18.23803    -999.25000      69.19205     108.69906     286.18979       8.96612       9.06253       1.63142       1.09962     320.49551       0.25525       2.72397       2.55288       0.00000       0.20304   13104.37305    7512.24854    3149.38086       0.44573    2547.52246    4547.52246       1.74440 
   7398.00000       8.75000      74.39510     129.84099     129.84099     206.35693       0.00000      19.13537    -999.25000      65.76013     107.38101     286.22540       8.97800       9.04892       1.54173       1.16565     320.54224       0.25563       2.73719       2.55493       0.00000       0.18950   13441.74609    7701.72803    3159.90918       0.32526    2546.30957    4546.30957       1.74529 
   7398.50000       8.75000      72.77736     126.86389     127.03003     206.36476       0.00000      18.80005    -999.25000      65.27072      99.09934     286.26273       9.00224       9.08803       1.53207       1.17833     319.89920       0.25474       2.74433       2.55483       0.13087       0.17806   13740.53711    7882.46338    3045.95239       0.34771    2547.84253    4547.84277       1.74318 
   7399.00000       8.75000      71.70116     124.98953     124.98953     206.48619       0.00000      16.99437    -999.25000      66.55729      96.50993     286.28085       8.99012       9.06167       1.63158       1.14564     319.48965       0.25475       2.74460       2.55343       0.00000       0.17045   13946.77637    8000.66992    3117.80957       0.47896    2551.37500    4551.37500       1.74320 
   7399.50000       8.75000      71.46794     124.59676     124.65508     206.67999       0.00000      15.31500    -999.25000      65.90453      97.43311     286.28726       8.97825       9.04805       1.71490       1.11013     318.29581       0.25483       2.72907       2.54978       0.04680       0.16880   13992.28809    8025.89062    3288.47632       0.53540    2555.80518    4555.80518       1.74339 
