~Version Information
VERS  .          2.0                              :CWLS Log Ascii Standard - Version 2.0
WRAP  .          NO                               :One line per depth step
~Well Information Block
#MNEM.UNIT       Data Type                        Information
#---------       ---------                        -------------------------------
STRT  .F         6780.00000                       :START DEPTH
STOP  .F         7804.00000                       :STOP DEPTH
STEP  .F          0.50000                         :INCREMENT 
NULL  .          -999.25                          :NULL DATA VALUE
COMP  .          NORTHEAST NATURAL ENERGY         :COMPANY
WELL  .          MIP_3H                           :WELL
FLD   .          MONONGALIA                       :FIELD
LOC   .          LONG  .DEG       -79.976624      :LOCATION
LOC1  .          LATI  .DEG       39.602203       :LOCATION
STAT  .          WEST VIRGINIA                    :STATE
CNTY  .          MONONGALIA                       :COUNTY
CTRY  .          USA                              :COUNTRY
DATE  .          05-SEP-2015                      :DATE
UWI   .          47-061-01707-00-00               :UNIQUE WELL UWI
API   .          47-061-01707-00-00               :API NUMBER
SRVC  .          SLB                              :SERVICE COMPANY
~Parameter Information Block
#MNEM.UNIT       Value                            Description
#---------       ---------                        -------------
LONG  .DEG       -79.976624                       :Well Surface Location
LATI  .DEG       39.602203                        :Well Surface Location
XWELL .DEG       -79.976624                       :X-coordinate of Well Head
YWELL .DEG       39.602203                        :Y-coordinate of Well Head
PDAT  .          GL                               :Permanent Datum               
EPD   .ft        1058.00                          :Elevation of Permanent Datum (PDAT) above Mean Sea Level
LMF   .          KB                               :Logging Measured From (Name of Working Datum)
APD   .ft        22.50                            :Elevation of Working Datum (LMF) Above Permanent Datum
EKB   .ft        1080.50                          :Elevation of Kelly Bushing Above Mean Sea Level
EGL   .ft        1058.00                          :Elevation of Ground Level Above Mean Sea Level
EDF   .ft        1080.50                          :Elevation of Derrick Floor Above Mean Sea Level
~Curve Information Block
#MNEM.UNIT       API Code            Curve    Description
#--------        --------------      -----    -------------------
DEPT  .F                             :0       Index
BS    .IN                            :1       Bit Size                      
DTCO  .US/F                          :2       Delta-T Compressional         
DTSM_FAST.US/F                       :3       Shear Slowness of Fast Shear Waves
DTSM_SLOW.US/F                       :4       Shear Slowness of Slow Shear Waves
DTST  .US/F                          :5       Delta-T Stoneley - Monopole Stoneley
FLAG  .                              :6       General Indicator Flag        
FSH_AZIM_ERR.DEG                     :7       Fast shear azimuth error      
FSH_AZIM_FILTERED.DEG                :8       Filtered estimate of fast shear azimuth from pad1 azimuth
FSH_P1NO.DEG                         :9       Estimated fast shear azimuth from pad1 azimuth in plane orthogonal to tool axis
GR_EDTC.GAPI                         :10      Gamma Ray                     
HAZIM .DEG                           :11      Hole Azimuth                  
HD1_PPC1.IN                          :12      PPC1 Hole Diameter 1          
HD2_PPC1.IN                          :13      PPC1 Hole Diameter 2          
MAXXENE_OVERALL.                     :14      Overall estimate of maximum cross energy
MINXENE_OVERALL.                     :15      Overall estimate of minimum cross energy
P1NO_MAST.DEG                        :16      Pad 1 Azimuth in Plane Orthogonal to Tool Axis (0 = True North), memorized to MAST
PR    .                              :17      Poisson's Ratio               
RHOB  .G/C3                          :18      Bulk Density                  
SDEVM .DEG                           :19      Sonde Deviation               
SLOANI.                              :20      Slowness based anisotropy     
SPHI  .V/V                           :21      Sonic Porosity                
SVCO  .FT/S                          :22      Sonic Compressional Velocity  
SVSH  .FT/S                          :23      Sonic Shear Velocity          
TENS  .LBF                           :24      Cable Tension                 
TIMANI.                              :25      Time based anisotropy         
TWB   .US                            :26      Time window begin             
TWE   .US                            :27      Time window end               
VPVS  .                              :28      Compressional to Shear Velocity Ratio
~Ascii Data Section
# ...
   7790.00000       8.75000      54.08151      81.85709      81.92146     205.06087       0.00000      12.66783    -999.25000      73.70390      31.50153     297.76831       8.54919       8.28024       2.36190       1.56178     165.36179       0.11269       2.61069       8.60102       0.07861       0.04584   18490.60742   12216.41309    3407.04004       0.22627    1871.57227    3871.57227       1.51359 
   7790.50000       8.75000      54.04420      82.04650      82.14783     205.13361       0.00000      13.24160    -999.25000      73.44661      31.50153     297.46835       8.56891       8.23592       2.34526       1.57990     165.37849       0.11678       2.60706       8.59451       0.12342       0.04557   18503.37305   12188.20996    3367.24023       0.21637    1872.11914    3872.11914       1.51814 
   7791.00000       8.75000      54.08253      82.28461      82.37650     205.22710       0.00000      13.68979    -999.25000      73.47601      31.50153     297.16193       8.51846       8.18627       2.32126       1.57766     165.40724       0.11973       2.61109       8.58792       0.11160       0.04585   18490.25977   12152.94043    3370.76929       0.21716    1872.36267    3872.36279       1.52146 
   7791.50000       8.75000      54.09680      82.52255      82.60425     205.31960       0.00000      14.27746    -999.25000      73.07786      31.50153     296.84933       8.73169       8.43936       2.26978       1.56048     165.39047       0.12322       2.63938       8.58099       0.09895       0.04595   18485.38086   12117.89941    3410.68018       0.20998    1871.99634    3871.99609       1.52546 
   7792.00000       8.75000      54.10406      82.55951      82.55951     205.40129       0.00000      14.71467    -999.25000      72.48405      31.50153     296.53510       8.72596       8.40822       2.22895       1.52972     165.31386       0.12363       2.67377       8.57368       0.00000       0.04600   18482.90039   12112.47461    3424.87988       0.19113    1871.62842    3871.62842       1.52594 
   7792.50000       8.75000      54.10391      82.42453      82.42453     205.44756       0.00000      15.00070    -999.25000      72.18307      31.50153     296.21561       8.70106       8.34652       2.20121       1.50314     165.30389       0.12147       2.69743       8.56600       0.00000       0.04600   18482.95117   12132.31055    3335.92334       0.17490    1871.57568    3871.57568       1.52345 
   7793.00000       8.75000      54.11183      82.42381      82.45090     205.49202       0.00000      15.22083    -999.25000      72.05591      31.50153     295.91577       8.70833       8.30336       2.16602       1.49052     165.32448       0.12126       2.69744       8.55899       0.03285       0.04605   18480.24609   12132.41602    3400.26929       0.16834    1871.67932    3871.67920       1.52321 
   7793.50000       8.75000      54.12528      82.64282      82.70470     205.51482       0.00000      15.45159    -999.25000      72.22063      31.50153     295.61502       8.66888       8.22796       2.13018       1.48339     165.32051       0.12445       2.68578       8.55194       0.07485       0.04615   18475.65625   12100.26465    3407.95996       0.17265    1871.94946    3871.94946       1.52688 
   7794.00000       8.75000      54.11688      82.95633      82.98949     205.51680       0.00000      15.81455    -999.25000      72.51880      31.50153     295.27722       8.68889       8.22796       2.10058       1.47495     165.33560       0.12958       2.67426       8.54343       0.03997       0.04609   18478.52148   12054.53516    3395.46167       0.17236    1872.29956    3872.29956       1.53291 
   7794.50000       8.75000      54.10069      83.16859      83.18004     205.51337       0.00000      16.30075    -999.25000      72.19512      31.50153     294.93268       8.65882       8.16219       2.09206       1.49170     165.35429       0.13323       2.66581       8.53418       0.01376       0.04597   18484.05273   12023.76953    3425.53857       0.16051    1872.72217    3872.72217       1.53729 
   7795.00000       8.75000      54.08110      83.29557      83.30328     205.51099       0.00000      16.66103    -999.25000      71.52288      31.50153     294.59741       8.66486       8.08173       2.09680       1.51948     165.35429       0.13562       2.66184       8.52446       0.00926       0.04584   18490.75000   12005.44043    3405.12012       0.16371    1873.45093    3873.45093       1.54020 
   7795.50000       8.75000      54.07265      83.44167      83.44302     205.51898       0.00000      16.17616    -999.25000      71.11795      31.50153     294.29745       8.67867       8.01667       2.12637       1.51516     165.35429       0.13802       2.67020       8.51557       0.00162       0.04578   18493.63672   11984.41992    3463.88477       0.17172    1873.09802    3873.09814       1.54314 
   7796.00000       8.75000      54.07719      83.56722      83.56739     205.51692       0.00000      15.51772    -999.25000      71.16701      31.50153     293.95172       8.65760       7.92316       2.15546       1.49105     165.35429       0.13978       2.68269       8.50381       0.00020       0.04581   18492.08594   11966.41406    3410.95996       0.18511    1871.63306    3871.63281       1.54533 
   7796.50000       8.75000      54.07996      83.56184      83.56223     205.49898       0.00000      15.59447    -999.25000      70.35716      31.50153     293.60556       8.59310       7.84326       2.16722       1.49938     165.35429       0.13964       2.69027       8.49180       0.00047       0.04583   18491.13867   11967.18457    3407.96143       0.17864    1871.16577    3871.16577       1.54515 
   7797.00000       8.75000      54.08472      83.54667      83.54846     205.49577       0.00000      15.74331    -999.25000      68.90205      31.50153     293.25903       8.60311       7.81213       2.18635       1.52295     165.35429       0.13930       2.68837       8.47859       0.00215       0.04586   18489.51172   11969.35840    3426.11548       0.15037    1859.15417    3859.15430       1.54474 
   7797.50000       8.75000      54.08241      83.54210      83.54256     205.49577       0.00000      16.14739    -999.25000      68.45267      31.50153     292.96085       8.58177       7.82592       2.19071       1.54887     165.35429       0.13929       2.68474       8.46701       0.00056       0.04584   18490.29883   11970.01270    3450.61548       0.13788    1844.83960    3844.83936       1.54472 
   7798.00000       8.75000      54.08241      83.54175      83.54175     205.49577       0.00000      16.61034    -999.25000      68.29790      31.50153     292.62134       8.58151       7.82816       2.18551       1.58700     165.35429       0.13928       2.68908       8.45300       0.00000       0.04584   18490.29883   11970.06348    3431.23999       0.12215    1842.90662    3842.90674       1.54471 
   7798.50000       8.75000      54.08241      83.54247      83.54247     205.49577       0.00000      16.80994    -999.25000      68.09941      31.50153     292.27298       8.61598       7.81660       2.18820       1.61507     165.35429       0.13930       2.69046       8.43843       0.00000       0.04584   18490.29883   11969.95996    3424.80762       0.10714    1843.43823    3843.43823       1.54473 
   7799.00000       8.75000      54.08241      83.54327      83.54327     205.49577       0.00000      17.13843    -999.25000      67.77223      31.50153     291.92838       8.59285       7.79834       2.19734       1.63464     165.35429       0.13931       2.68992       8.42410       0.00000       0.04584   18490.29883   11969.84473    3389.38477       0.08975    1844.00049    3844.00049       1.54474 
   7799.50000       8.75000      54.08241      83.54354      83.54362     205.49577       0.00000      17.28682    -999.25000      67.00661      31.50153     291.60864       8.78214       7.95289       2.20638       1.64051     165.35429       0.13931       2.68344       8.41088       0.00009       0.04584   18490.29883   11969.80664    3417.73096       0.06206    1844.82019    3844.82031       1.54475 
