~Version Information
VERS  .          2.0                              :CWLS Log Ascii Standard - Version 2.0
WRAP  .          NO                               :One line per depth step
~Well Information Block
#MNEM.UNIT       Data Type                        Information
#---------       ---------                        -------------------------------
STRT  .F         6780.00000                       :START DEPTH
STOP  .F         7804.00000                       :STOP DEPTH
STEP  .F          0.50000                         :INCREMENT 
NULL  .          -999.25                          :NULL DATA VALUE
COMP  .          NORTHEAST NATURAL ENERGY         :COMPANY
WELL  .          MIP_3H                           :WELL
FLD   .          MONONGALIA                       :FIELD
LOC   .          LONG  .DEG       -79.976624      :LOCATION
LOC1  .          LATI  .DEG       39.602203       :LOCATION
STAT  .          WEST VIRGINIA                    :STATE
CNTY  .          MONONGALIA                       :COUNTY
CTRY  .          USA                              :COUNTRY
DATE  .          05-SEP-2015                      :DATE
UWI   .          47-061-01707-00-00               :UNIQUE WELL UWI
API   .          47-061-01707-00-00               :API NUMBER
SRVC  .          SLB                              :SERVICE COMPANY
~Parameter Information Block
#MNEM.UNIT       Value                            Description
#---------       ---------                        -------------
LONG  .DEG       -79.976624                       :Well Surface Location
LATI  .DEG       39.602203                        :Well Surface Location
XWELL .DEG       -79.976624                       :X-coordinate of Well Head
YWELL .DEG       39.602203                        :Y-coordinate of Well Head
PDAT  .          GL                               :Permanent Datum               
EPD   .ft        1058.00                          :Elevation of Permanent Datum (PDAT) above Mean Sea Level
LMF   .          KB                               :Logging Measured From (Name of Working Datum)
APD   .ft        22.50                            :Elevation of Working Datum (LMF) Above Permanent Datum
EKB   .ft        1080.50                          :Elevation of Kelly Bushing Above Mean Sea Level
EGL   .ft        1058.00                          :Elevation of Ground Level Above Mean Sea Level
EDF   .ft        1080.50                          :Elevation of Derrick Floor Above Mean Sea Level
~Curve Information Block
#MNEM.UNIT       API Code            Curve    Description
#--------        --------------      -----    -------------------
DEPT  .F                             :0       Index
BS    .IN                            :1       Bit Size                      
DTCO  .US/F                          :2       Delta-T Compressional         
DTSM_FAST.US/F                       :3       Shear Slowness of Fast Shear Waves
DTSM_SLOW.US/F                       :4       Shear Slowness of Slow Shear Waves
DTST  .US/F                          :5       Delta-T Stoneley - Monopole Stoneley
FLAG  .                              :6       General Indicator Flag        
FSH_AZIM_ERR.DEG                     :7       Fast shear azimuth error      
FSH_AZIM_FILTERED.DEG                :8       Filtered estimate of fast shear azimuth from pad1 azimuth
FSH_P1NO.DEG                         :9       Estimated fast shear azimuth from pad1 azimuth in plane orthogonal to tool axis
GR_EDTC.GAPI                         :10      Gamma Ray                     
HAZIM .DEG                           :11      Hole Azimuth                  
HD1_PPC1.IN                          :12      PPC1 Hole Diameter 1          
HD2_PPC1.IN                          :13      PPC1 Hole Diameter 2          
MAXXENE_OVERALL.                     :14      Overall estimate of maximum cross energy
MINXENE_OVERALL.                     :15      Overall estimate of minimum cross energy
P1NO_MAST.DEG                        :16      Pad 1 Azimuth in Plane Orthogonal to Tool Axis (0 = True North), memorized to MAST
PR    .                              :17      Poisson's Ratio               
RHOB  .G/C3                          :18      Bulk Density                  
SDEVM .DEG                           :19      Sonde Deviation               
SLOANI.                              :20      Slowness based anisotropy     
SPHI  .V/V                           :21      Sonic Porosity                
SVCO  .FT/S                          :22      Sonic Compressional Velocity  
SVSH  .FT/S                          :23      Sonic Shear Velocity          
TENS  .LBF                           :24      Cable Tension                 
TIMANI.                              :25      Time based anisotropy         
TWB   .US                            :26      Time window begin             
TWE   .US                            :27      Time window end               
VPVS  .                              :28      Compressional to Shear Velocity Ratio
~Ascii Data Section
# ...
   6980.00000       8.75000      81.63813     139.59988     139.59988     207.35603       0.00000      14.42797    -999.25000     100.95534     120.19305     261.07306       9.12209       9.08539       2.00829       1.11404      64.64696       0.24013       2.68045       1.64379       0.00000       0.24072   12249.17773    7163.32959    3037.94995       0.22631    2611.11792    4611.11768       1.70998 
   6980.50000       8.75000      82.26423     140.57480     140.57480     207.30981       0.00000      14.94770    -999.25000     100.32372     117.67442     261.09036       9.14603       9.08539       2.05163       1.18731      63.71601       0.23959       2.66595       1.64412       0.00000       0.24515   12155.95215    7113.65039    2975.57129       0.20678    2611.41309    4611.41309       1.70882 
   6981.00000       8.75000      82.31344     141.81406     141.81406     207.10632       0.00000      15.39211    -999.25000     100.32205     116.60642     261.07034       9.14627       9.08539       2.07219       1.24863      61.65962       0.24596       2.66845       1.64383       0.00000       0.24550   12148.68457    7051.48730    3039.80005       0.20429    2611.21606    4611.21582       1.72285 
   6981.50000       8.75000      82.15282     142.51782     142.51782     206.85664       0.00000      15.96305    -999.25000     100.07478     115.54471     261.01874       9.18386       9.08835       2.04789       1.28377      60.54645       0.25118       2.67870       1.64384       0.00000       0.24436   12172.43555    7016.66650    3124.23828       0.20193    2611.00635    4611.00684       1.73479 
   6982.00000       8.75000      82.41306     142.33430     142.48767     206.79358       0.00000      16.45727    -999.25000      99.45769     119.66938     260.98572       9.18204       9.07266       2.01143       1.30621      59.51816       0.24783       2.67871       1.64384       0.10769       0.24620   12133.99902    7025.71338    2979.69995       0.19062    2610.97412    4610.97461       1.72708 
   6982.50000       8.75000      83.48539     141.99402     142.26677     206.61609       0.00000      16.61280    -999.25000      98.86864     124.76662     260.95819       9.17114       9.07266       1.98285       1.33272      58.67315       0.23584       2.66284       1.64315       0.19190       0.25379   11978.14355    7042.55029    3031.14282       0.18834    2611.45288    4611.45312       1.70082 
   6983.00000       8.75000      84.32108     141.50269     141.80589     206.59326       0.00000      16.91843    -999.25000      98.46820     124.20408     260.90677       9.18386       9.08539       1.95109       1.36604      58.33608       0.22469       2.63572       1.64231       0.21405       0.25970   11859.43164    7067.00391    2974.50000       0.19242    2612.58960    4612.58984       1.67814 
   6983.50000       8.75000      84.33866     140.76021     141.39276     206.47008       0.00000      17.27421    -999.25000      97.91680     125.81422     260.82010       9.17020       9.04778       1.91282       1.38308      58.26683       0.21997       2.62164       1.64189       0.44838       0.25982   11856.95801    7104.28027    3061.09521       0.19177    2613.88232    4613.88232       1.66899 
   6984.00000       8.75000      83.34311     139.93916     140.98260     206.47441       0.00000      17.67521    -999.25000      97.25797     124.93670     260.74353       9.17203       9.03568       1.85873       1.38880      58.20326       0.22517       2.63202       1.64173       0.74287       0.25278   11998.59277    7145.96240    3090.90479       0.18833    2614.59033    4614.59082       1.67907 
   6984.50000       8.75000      82.34547     139.13490     140.57292     206.12007       0.00000      18.26826    -999.25000      96.88531     124.11246     260.66934       9.17203       9.04930       1.79106       1.39230      57.30336       0.23045       2.65606       1.64135       1.02823       0.24572   12143.95801    7187.26904    3022.55005       0.18559    2614.35010    4614.35010       1.68965 
   6985.00000       8.75000      81.73798     138.61948     140.15956     205.75812       0.00000      18.87492    -999.25000      97.68233     116.28824     260.56558       9.19593       9.04930       1.72465       1.40065      54.25768       0.23349       2.66470       1.64014       1.10488       0.24143   12234.21387    7213.99365    2966.80957       0.19377    2613.14648    4613.14648       1.69590 
   6985.50000       8.75000      81.52559     138.45663     139.89366     205.56567       0.00000      18.99189    -999.25000     102.42915     112.61639     260.47040       9.18410       9.04930       1.65012       1.41410      51.64184       0.23465       2.65719       1.63938       1.03253       0.23993   12266.08691    7222.47803    3043.76196       0.24465    2611.19604    4611.19629       1.69832 
   6986.00000       8.75000      81.51746     138.53952     139.79607     205.54671       0.00000      18.63735    -999.25000     110.70174     113.57469     260.38855       9.19593       9.04930       1.58555       1.41667      51.14931       0.23522       2.64923       1.63852       0.90290       0.23987   12267.30957    7218.15674    3027.25000       0.32518    2608.77539    4608.77539       1.69951 
   6986.50000       8.75000      81.76356     138.82001     139.72626     205.90633       0.00000      18.59722    -999.25000     117.49035     113.47889     260.30716       9.17226       9.06291       1.54762       1.39398      51.04638       0.23441       2.65187       1.63713       0.65070       0.24161   12230.38770    7203.57275    2986.23828       0.38159    2606.25635    4606.25635       1.69782 
   6987.00000       8.75000      82.29989     139.17302     139.63222     206.13086       0.00000      18.69532    -999.25000     120.70111     111.37452     260.25378       9.14835       9.04930       1.52559       1.35286      50.81996       0.23113       2.66398       1.63608       0.32940       0.24540   12150.68457    7185.30078    2951.35010       0.40120    2604.01587    4604.01562       1.69105 
   6987.50000       8.75000      82.91563     139.46159     139.46159     206.73737       0.00000      18.41626    -999.25000     122.05132     110.68153     260.22391       9.16019       9.04930       1.50320       1.30129      50.51710       0.22663       2.67621       1.63431       0.00000       0.24976   12060.45312    7170.43311    3084.76196       0.40445    2602.16309    4602.16309       1.68197 
   6988.00000       8.75000      83.38904     139.37949     139.37949     206.95102       0.00000      18.15915    -999.25000     123.92995     115.31111     260.23068       9.17203       9.03266       1.48730       1.24409      50.31498       0.22125       2.67638       1.63358       0.00000       0.25310   11991.98340    7174.65674    3010.57153       0.40816    2600.51514    4600.51514       1.67144 
   6988.50000       8.75000      83.57948     139.08853     139.17421     207.25586       0.00000      17.56264    -999.25000     127.02385     122.21711     260.26230       9.14835       9.04781       1.52419       1.18123      50.22249       0.21742       2.66830       1.63361       0.06158       0.25445   11964.66016    7189.66553    2915.44995       0.43147    2599.02832    4599.02832       1.66415 
   6989.00000       8.75000      83.58839     138.23247     138.64333     207.38225       0.00000      16.82458    -999.25000     131.59984     128.21875     260.32675       9.14857       9.10196       1.68803       1.15946      49.27967       0.21179       2.65762       1.63466       0.29678       0.25451   11963.38477    7234.19043    3046.66675       0.49119    2597.29761    4597.29785       1.65373 
   6989.50000       8.75000      83.51556     137.39430     138.20241     207.44585       0.00000      16.22488    -999.25000     135.87805     128.35106     260.42465       9.13651       9.08835       1.93316       1.16405      46.14647       0.20700       2.65560       1.63779       0.58644       0.25400   11973.81738    7278.32227    3058.38110       0.57147    2594.74683    4594.74658       1.64513 
